stop_id,stop_code,stop_name,stop_desc,stop_lat,stop_lon,zone_id,stop_url,location_type,parent_station
822008203,8203,Visitor Centre,,53.36469,-6.33167,,,,
822008204,8204,Áras an Uachtaráin,,53.35938,-6.32384,,,,
822008205,8205,Dublin Zoo,,53.35173,-6.30548,,,,
822008206,8206,Park Gates,,53.34884,-6.29777,,,,
822008208,8208,Park Gates,,53.348995,-6.298737,,,,
822008209,8209,Dublin Zoo,,53.35169,-6.3057,,,,
822008210,8210,Áras an Uachtaráin,,53.358951,-6.32316,,,,
8220DB000002,2,Parnell Square West,,53.3522443611383,-6.26372321891887,,,,
8220DB000003,3,Parnell Square West,,53.3523085514325,-6.26381074216825,,,,
8220DB000004,4,Parnell Square West,,53.352574513185,-6.26417548603797,,,,
8220DB000005,5,Parnell Square West,,53.3525736395204,-6.26411543286632,,,,
8220DB000007,7,Parnell Square West,,53.3528409105784,-6.26457026121749,,,,
8220DB000008,8,Parnell Square West,,53.3532722714822,-6.265183676574,,,,
8220DB000010,10,Parnell Square West,,53.3533921036473,-6.26538912389954,,,,
8220DB000011,11,St Joseph's Parade,,53.3568152335295,-6.26467919507526,,,,
8220DB000012,12,Upper Dorset Street,,53.3571075162022,-6.2643818673353,,,,
8220DB000014,14,Dorset Street Lower,,53.3585312378758,-6.2627765057087,,,,
8220DB000015,15,Innisfallen Parade,,53.360267,-6.260978,,,,
8220DB000016,16,Nephin Road Park,,53.3663915571411,-6.30561418352737,,,,
8220DB000017,17,Drumcondra Rail Station,,53.3630783243779,-6.25839928847834,,,,
8220DB000018,18,Dargle Road,,53.3658559259166,-6.25595682067835,,,,
8220DB000019,19,Botanic Avenue,,53.3672348759324,-6.25559994097702,,,,
8220DB000021,21,DCU St Patrick's,,53.3701011992947,-6.25431059904442,,,,
8220DB000022,22,Home Farm Road,,53.3735036097406,-6.25280375269006,,,,
8220DB000023,23,Ferguson Road,,53.3742282800791,-6.256261004167,,,,
8220DB000024,24,Walsh Road,,53.3751331588841,-6.26037234812319,,,,
8220DB000025,25,Rathlin Road,,53.3758994661474,-6.26361773641709,,,,
8220DB000027,27,Ballymun Road,,53.3794389600107,-6.26658526126003,,,,
8220DB000028,28,Hampstead Avenue,,53.381578637628,-6.26600227077738,,,,
8220DB000029,29,Albert College Park,,53.3834882529457,-6.26566910125417,,,,
8220DB000030,30,Ventry Park,,53.370331900193,-6.30460116922913,,,,
8220DB000031,31,St Pappin's Road,,53.3860332259144,-6.268858077275,,,,
8220DB000032,32,Stormanstown Road,,53.3861955680738,-6.2713772010414,,,,
8220DB000033,33,Glasnevin Drive,,53.3887179243058,-6.27177114122451,,,,
8220DB000035,35,Dean Swift Road,,53.3862067871013,-6.270910692541,,,,
8220DB000036,36,Maolbuille Road,,53.386126850411,-6.26787706978339,,,,
8220DB000037,37,DCU Ballymun Road,,53.385346401194,-6.26488698131794,,,,
8220DB000038,38,Hampstead Avenue,,53.3822365941636,-6.26550952120506,,,,
8220DB000039,39,The Rise,,53.3804141869323,-6.26565875906589,,,,
8220DB000040,40,Stella Avenue,,53.3766607654507,-6.26466896852794,,,,
8220DB000041,41,Home Farm Road,,53.3755592683258,-6.26185800624669,,,,
8220DB000042,42,Corpus Christi NS,,53.3746502734575,-6.25746118972134,,,,
8220DB000043,43,Achill Road,,53.3738612202267,-6.25390131043392,,,,
8220DB000044,44,Skylon Hotel,,53.3730174091204,-6.25213230324296,,,,
8220DB000045,45,DCU St Patrick's,,53.3699364344006,-6.25410694084966,,,,
8220DB000046,46,Botanic Avenue,,53.367131016215,-6.25525855655013,,,,
8220DB000047,47,Drumcondra Rail Station,,53.3639161189927,-6.25729825652802,,,,
8220DB000048,48,Fitzroy Avenue,,53.3622573901228,-6.25880841233317,,,,
8220DB000049,49,Dorset Street Lower,,53.3600042378879,-6.26085350834054,,,,
8220DB000051,51,Temple Street,,53.3578104088094,-6.26327157246552,,,,
8220DB000052,52,Dorset Street Upper,,53.3566607792349,-6.26456528204098,,,,
8220DB000053,53,North Circular Road,,53.3600144884223,-6.26279128910752,,,,
8220DB000054,54,Mater Hospital,,53.3602216080548,-6.26590803396309,,,,
8220DB000055,55,Mountjoy,,53.3604116029234,-6.26846957982236,,,,
8220DB000056,56,Dalymount,,53.3607597246041,-6.2763736549141,,,,
8220DB000057,57,Dalymount,,53.3608162242918,-6.27655167484331,,,,
8220DB000058,58,Churchview Home,,53.3609462458913,-6.28120420246722,,,,
8220DB000059,59,Annamoe Terrace,,53.3610180101964,-6.28494256312827,,,,
8220DB000060,60,Quarry Road,,53.3612792196482,-6.28936450005445,,,,
8220DB000063,63,Faussaugh Avenue,,53.366792437293,-6.29275010805854,,,,
8220DB000064,64,Faussaugh Avenue Church,,53.3670885820667,-6.29523278220336,,,,
8220DB000065,65,Dingle Road,,53.3672546442386,-6.29805127641299,,,,
8220DB000066,66,Broombridge Road,,53.367275,-6.30074,,,,
8220DB000068,68,Ventry Drive,,53.369077508046,-6.30424523466641,,,,
8220DB000069,69,Carnlough Road,,53.3713925640935,-6.30334171689525,,,,
8220DB000071,71,Ventry Park,,53.3702576893289,-6.30443880530351,,,,
8220DB000072,72,Ventry Drive,,53.368969926025,-6.30426453600163,,,,
8220DB000073,73,Faussagh Avenue,,53.3673915527258,-6.3007206786557,,,,
8220DB000074,74,Faussaugh Avenue Church,,53.3672002385634,-6.29549881400778,,,,
8220DB000075,75,Fionnbarra GAA,,53.3665472298946,-6.29131731936794,,,,
8220DB000077,77,Quarry Road,,53.3613091819025,-6.28957365234688,,,,
8220DB000078,78,Annamoe Terrace,,53.3611492151906,-6.28406583527474,,,,
8220DB000079,79,Churchview Home,,53.3610212509762,-6.28079550562152,,,,
8220DB000080,80,Phibsborough PO,,53.360862963273,-6.27605396152962,,,,
8220DB000081,81,Phibsborough,,53.3608757479059,-6.27196662691607,,,,
8220DB000082,82,Phibsborough,,53.3607977959156,-6.27154908016382,,,,
8220DB000083,83,Mater Hospital,,53.3602792498223,-6.26554509616275,,,,
8220DB000084,84,Leo Street,,53.3601625615962,-6.26370178059102,,,,
8220DB000085,85,Wellpark Avenue,,53.3739579526136,-6.2519134296642,,,,
8220DB000090,90,Albert College Court,,53.3863855316738,-6.26526567275522,,,,
8220DB000091,91,Ballymun Road NS,,53.3884278896483,-6.26540814207682,,,,
8220DB000092,92,Ballymun Library,,53.3898373340512,-6.26467424036105,,,,
8220DB000093,93,Gateway Avenue,,53.3923014677497,-6.26415297561013,,,,
8220DB000094,94,Civic Centre,,53.3960347624115,-6.26437695995448,,,,
8220DB000102,102,Balbutcher Lane,,53.397773070166,-6.26771985697013,,,,
8220DB000104,104,Poppintree Parade,,53.3997562075174,-6.27681294502528,,,,
8220DB000105,105,Belclare Park,,53.4029363966818,-6.28169269646949,,,,
8220DB000107,107,Crannogue Road,,53.4023798987989,-6.28049690990612,,,,
8220DB000110,110,Ard na Meala,,53.3979386409613,-6.26860038147331,,,,
8220DB000112,112,Civic Centre,,53.3961544015462,-6.2639510403018,,,,
8220DB000113,113,Trinity Comp School,,53.3922679629262,-6.26370325464247,,,,
8220DB000114,114,Ballymun Road,,53.3913333220544,-6.26371122925237,,,,
8220DB000115,115,Ballymun Road Church,,53.3879640919871,-6.26503610048148,,,,
8220DB000119,119,The Village,,53.3751904807235,-6.25076574528234,,,,
8220DB000126,126,Nursing Home,,53.3990954666854,-6.26408696056045,,,,
8220DB000127,127,Nursing Home,,53.3991075304805,-6.26368042823971,,,,
8220DB000128,128,Glasnevin Avenue,,53.3892678697418,-6.26568972261117,,,,
8220DB000129,129,Glasnevin Drive,,53.3898903154474,-6.27142293606878,,,,
8220DB000130,130,Glasnevin Park,,53.3900920127596,-6.27418126942505,,,,
8220DB000131,131,Willow Park Road,,53.3903858902624,-6.27834923697209,,,,
8220DB000132,132,Beneavin Park,,53.3905207424932,-6.2827191236982,,,,
8220DB000133,133,Grove Park Road,,53.3907969275881,-6.28630150947292,,,,
8220DB000134,134,Sycamore Road,,53.3930945913203,-6.28607386543561,,,,
8220DB000136,136,McKee Road,,53.3943802013894,-6.28985659650009,,,,
8220DB000137,137,Clancy Avenue,,53.3923167196303,-6.29263079481432,,,,
8220DB000138,138,St Canice's BNS,,53.3899950092672,-6.29180657264741,,,,
8220DB000139,139,Grove Park Road,,53.3906014624241,-6.28645971748872,,,,
8220DB000140,140,Beneavin Park,,53.3906344923641,-6.28250404674216,,,,
8220DB000141,141,Willow Park Road,,53.3904450850916,-6.27809124468715,,,,
8220DB000142,142,Glasnevin Park,,53.3901982852621,-6.27407172195534,,,,
8220DB000143,143,Willow Park Avenue,,53.389876708405,-6.2692433699802,,,,
8220DB000146,146,Na Fianna GAA Club,,53.3750401276319,-6.26509558567468,,,,
8220DB000147,147,Tolka Bridge,,53.37248,-6.265831,,,,
8220DB000148,148,Mobhi Road,,53.3706701663468,-6.26806850705825,,,,
8220DB000149,149,Tolka Bridge,,53.373139,-6.265985,,,,
8220DB000150,150,Na Fianna GAA Club,,53.3756588461862,-6.26499528302822,,,,
8220DB000151,151,Botanic Gardens,,53.3719552600192,-6.26929382771155,,,,
8220DB000153,153,Met Eireann,,53.3756885056236,-6.27013443946296,,,,
8220DB000154,154,St Brigid's School,,53.3772589962512,-6.27555703718651,,,,
8220DB000155,155,Old Finglas Road,,53.3778742492869,-6.27957552717572,,,,
8220DB000156,156,Tolka Estate,,53.378623390086,-6.28166473909492,,,,
8220DB000157,157,Glasilawn Road,,53.3804116224166,-6.28163782517765,,,,
8220DB000158,158,Griffith Road,,53.3814819498289,-6.28356395405038,,,,
8220DB000159,159,Griffith Parade,,53.3827837191573,-6.28283511246108,,,,
8220DB000164,164,Beneavin Road,,53.3884303639456,-6.28048792293046,,,,
8220DB000165,165,Beneavin Park,,53.3890348746718,-6.28377124881097,,,,
8220DB000166,166,Beneavin School,,53.3895835973683,-6.28630514857364,,,,
8220DB000167,167,Beneavin Road,,53.3901866021356,-6.28698758531706,,,,
8220DB000168,168,Beneavin Park,,53.3892599668872,-6.28442373469442,,,,
8220DB000169,169,Beneavin Court,,53.3884339346693,-6.28011190995853,,,,
8220DB000173,173,Glasnamana Place,,53.3821216122982,-6.28054674839469,,,,
8220DB000174,174,Tolka Estate,,53.3806803549474,-6.28095056210771,,,,
8220DB000175,175,Northland Grove,,53.3784242537309,-6.28156753895514,,,,
8220DB000176,176,Old Finglas Road,,53.3780320419735,-6.27929860607809,,,,
8220DB000177,177,Ballygall Road East,,53.3804683765673,-6.27622403515383,,,,
8220DB000178,178,Fitzmaurice Road,,53.3818902631693,-6.27634698261825,,,,
8220DB000179,179,Ballygall Road East,,53.3803034312762,-6.27600521980133,,,,
8220DB000181,181,Cremore Avenue,,53.3771498433764,-6.27422370686192,,,,
8220DB000182,182,Met Eireann,,53.3756567668221,-6.26980505970865,,,,
8220DB000183,183,Botanic Gardens,,53.3723159291215,-6.26875318486038,,,,
8220DB000184,184,Botanic Road,,53.3697036819826,-6.26897935449929,,,,
8220DB000185,185,St Teresa's Place,,53.3681009359861,-6.27002113927784,,,,
8220DB000186,186,Lindsay Grove,,53.365355342635,-6.27158997755118,,,,
8220DB000187,187,Phibsborough Road,,53.3627342523604,-6.27244736533831,,,,
8220DB000188,188,North Circular Road,,53.3601206877553,-6.27258314915011,,,,
8220DB000189,189,Fire Station,,53.3571674394883,-6.27346881555339,,,,
8220DB000190,190,Broadstone,,53.3551257304144,-6.27337107400574,,,,
8220DB000191,191,Western Way,,53.3550179485755,-6.26903378050291,,,,
8220DB000192,192,Mountjoy Street,,53.3563972112359,-6.26807646963914,,,,
8220DB000193,193,Finglas Park,,53.3911963059787,-6.29410403487394,,,,
8220DB000194,194,Western Way,,53.3550406495518,-6.26997931103774,,,,
8220DB000195,195,Broadstone,,53.3550117778767,-6.27357097973096,,,,
8220DB000196,196,Fire Station,,53.3568838992907,-6.27375070406954,,,,
8220DB000197,197,Monck Place,,53.358952631612,-6.27323137351172,,,,
8220DB000198,198,Phibsborough SC,,53.3616253828786,-6.27283781041661,,,,
8220DB000199,199,Munster Street,,53.3636218114982,-6.27229124622519,,,,
8220DB000200,200,Prospect Way,,53.3674226926312,-6.27159644393802,,,,
8220DB000201,201,Botanic Road,,53.3682910986599,-6.27011862691081,,,,
8220DB000202,202,Fairfield Road,,53.3700800875498,-6.26890397753376,,,,
8220DB000203,203,Whitehall College,,53.3763927937136,-6.25001002810673,,,,
8220DB000204,204,Highfield Hospital,,53.379588357567,-6.24666219273761,,,,
8220DB000205,205,Iveragh Road,,53.3813753269372,-6.24532604699473,,,,
8220DB000206,206,Collins Avenue West,,53.3835460890329,-6.24747670792428,,,,
8220DB000207,207,Larkhill Road,,53.3848216307362,-6.24987478276802,,,,
8220DB000208,208,Glendun Road,,53.3866539303158,-6.24795040815756,,,,
8220DB000209,209,Larkhill Road,,53.387271110529,-6.24591044728042,,,,
8220DB000210,210,Crestfield Road,,53.3875940812728,-6.24831772849056,,,,
8220DB000211,211,Collins Avenue,,53.3842808561631,-6.24916033059417,,,,
8220DB000212,212,Whitehall,,53.3831956351277,-6.24625839753322,,,,
8220DB000213,213,Iveragh Road,,53.3814495440234,-6.24487202356896,,,,
8220DB000214,214,Highfield Hospital,,53.379408483573,-6.24665455182556,,,,
8220DB000215,215,Collins Avenue,,53.3818722870048,-6.2424494292295,,,,
8220DB000216,216,Beaumont Road,,53.3823308174836,-6.23819131969338,,,,
8220DB000217,217,Grace Park Court,,53.384323621843,-6.23680112220447,,,,
8220DB000218,218,Shantalla Road,,53.3859238989699,-6.2337883241109,,,,
8220DB000220,220,Swords Road,,53.3879405396554,-6.24498084117383,,,,
8220DB000228,228,Shanliss Road,,53.391877392779,-6.25971957291398,,,,
8220DB000233,233,Beaumont Road,,53.3858213105789,-6.23353699415902,,,,
8220DB000234,234,Beaumont Grove,,53.3849504827242,-6.23482084271804,,,,
8220DB000235,235,Collinswood,,53.3832966131819,-6.23724945651059,,,,
8220DB000236,236,Yellow Road,,53.3820247430957,-6.23815886003786,,,,
8220DB000237,237,Swords Road,,53.3820319328819,-6.24352519975875,,,,
8220DB000242,242,Coolgreena Road,,53.3856548985671,-6.23201042765,,,,
8220DB000243,243,Lady of Mercy,,53.3857800608389,-6.22953967454698,,,,
8220DB000244,244,Skelly's Lane,,53.3849982136853,-6.22349851566417,,,,
8220DB000245,245,Whitethorn Crescent,,53.38447224442,-6.21956660604612,,,,
8220DB000246,246,Artane Castle,,53.3851504766469,-6.21623087716996,,,,
8220DB000247,247,Ardlea Road,,53.3869761610588,-6.21450075590277,,,,
8220DB000248,248,Maryfield Drive,,53.3855645601725,-6.21446963135785,,,,
8220DB000249,249,Artane Castle,,53.3849335491788,-6.21614974496396,,,,
8220DB000250,250,Skelly's Lane,,53.3844194499785,-6.22024531610136,,,,
8220DB000251,251,Elmount Crescent,,53.3848322787448,-6.22321978633312,,,,
8220DB000252,252,Lady of Mercy,,53.3855680158371,-6.22796991791541,,,,
8220DB000253,253,Beaumont Hospital,,53.3899625746413,-6.22429914227646,,,,
8220DB000254,254,Beaumont Hospital,,53.3902652984433,-6.22410611366838,,,,
8220DB000255,255,Coolgreena Road,,53.3855938804189,-6.23153187241743,,,,
8220DB000261,261,Parnell Square East,,53.3540562845333,-6.26285336122226,,,,
8220DB000262,262,Parnell Square East,,53.3539469610394,-6.26275264892108,,,,
8220DB000263,263,Parnell Square East,,53.3537456234947,-6.2625054539801,,,,
8220DB000264,264,Parnell Square East,,53.353316,-6.26197,,,,
8220DB000265,265,Parnell Square East,,53.353122,-6.261658,,,,
8220DB000270,270,O'Connell Street Upper,,53.3506233915307,-6.26042429163433,,,,
8220DB000271,271,O'Connell Street Lower,,53.3485963625818,-6.25948541997212,,,,
8220DB000272,272,O'Connell Street Upper,,53.3514644798917,-6.26078060573293,,,,
8220DB000273,273,O'Connell Bridge,,53.347247,-6.258819,,,,
8220DB000274,274,O'Connell Street Upper,,53.3503490838222,-6.26072086862175,,,,
8220DB000276,276,River Road,,53.3774022009249,-6.33179658312856,,,,
8220DB000277,277,O'Connell Street Upper,,53.350822325818,-6.26050631978692,,,,
8220DB000278,278,O'Connell Street Upper,,53.3515608719031,-6.26122733564317,,,,
8220DB000279,279,O'Connell Street Upper,,53.3501317464093,-6.26060954701665,,,,
8220DB000281,281,O'Connell Street Upper,,53.3513435349588,-6.2611160084316,,,,
8220DB000284,284,Rathbourne Avenue,,53.3772826239301,-6.32838928381528,,,,
8220DB000286,286,Cathal Brugha Street,,53.3521708437386,-6.25991061099437,,,,
8220DB000288,288,Irish Life,,53.3491688123216,-6.25560170347437,,,,
8220DB000289,289,Abbey Street Lower,,53.3490351823471,-6.25629812341943,,,,
8220DB000292,292,Abbey Street Lower,,53.3491996947616,-6.25525495938711,,,,
8220DB000297,297,Eden Quay,,53.3481432679358,-6.25677012601713,,,,
8220DB000298,298,Eden Quay,,53.3482006633743,-6.25639226781083,,,,
8220DB000299,299,Eden Quay,,53.3482418474457,-6.25613523566336,,,,
8220DB000300,300,Liberty Hall,,53.3482992408586,-6.25575737577466,,,,
8220DB000301,301,Eden Quay,,53.3479883676,-6.25662624092325,,,,
8220DB000302,302,Eden Quay,,53.3480380961813,-6.2563388203753,,,,
8220DB000303,303,Eden Quay,,53.3480599980905,-6.25599245267006,,,,
8220DB000307,307,O'Donovan Road,,53.3345770894658,-6.28008746416521,,,,
8220DB000308,308,Oscar Square,,53.3367711889546,-6.27953365692407,,,,
8220DB000309,309,Ardee Street,,53.33784,-6.27895,,,,
8220DB000312,312,Wellington Quay,,53.3454764728264,-6.2662061554843,,,,
8220DB000315,315,Bachelors Walk,,53.347028,-6.261667,,,,
8220DB000318,318,Westmoreland Street,,53.3464177131169,-6.25924373595417,,,,
8220DB000319,319,Westmoreland Street,,53.346274426733,-6.25927961394877,,,,
8220DB000320,320,Westmoreland Street,,53.3456456323889,-6.25930523253448,,,,
8220DB000322,322,Gulliver's Retail Park,,53.4042549924644,-6.26535084532186,,,,
8220DB000325,325,Aston Quay,,53.3466970502533,-6.2599082595371,,,,
8220DB000328,328,Aston Quay,,53.346333,-6.26144,,,,
8220DB000329,329,Aston Quay,,53.346274,-6.261683,,,,
8220DB000333,333,D'Olier Street,,53.3466922365908,-6.25834636399196,,,,
8220DB000334,334,D'Olier Street,,53.346581156205,-6.25812559112216,,,,
8220DB000335,335,D'Olier Street,,53.3463614054418,-6.25784917048538,,,,
8220DB000336,336,D'Olier Street,,53.3462516394294,-6.25771846673947,,,,
8220DB000340,340,Townsend Street,,53.345975,-6.256017,,,,
8220DB000342,342,College Street,,53.3455641183174,-6.25680026075817,,,,
8220DB000345,345,Pearse Street Garda Station,,53.345475815469,-6.2562931940713,,,,
8220DB000346,346,Pearse Street Garda Station,,53.3455443981649,-6.25668090763654,,,,
8220DB000350,350,Prince's Street South,,53.3456319415816,-6.24976824959424,,,,
8220DB000351,351,Erne Street,,53.3434182647907,-6.24530817378361,,,,
8220DB000352,352,Pearse Square,,53.342989145803,-6.2424121399899,,,,
8220DB000353,353,Grand Canal Quay,,53.3426450090424,-6.23979801761228,,,,
8220DB000354,354,Ringsend Road,,53.3422358280174,-6.2364356898267,,,,
8220DB000355,355,Ringsend Garage,,53.3418173477811,-6.233058790693,,,,
8220DB000356,356,Ringsend,,53.3419030234416,-6.22671744313464,,,,
8220DB000357,357,Irishtown Road,,53.3391710439669,-6.22312147489857,,,,
8220DB000358,358,Sean Moore Road,,53.3390271337242,-6.21709042092931,,,,
8220DB000369,369,Pine Road,,53.3405094978855,-6.21403998399881,,,,
8220DB000371,371,Irishtown Road,,53.3386127807367,-6.22305458253422,,,,
8220DB000372,372,Star of the Sea,,53.3354881469499,-6.21965567144901,,,,
8220DB000373,373,Farney Park,,53.3342753312713,-6.21788927259654,,,,
8220DB000374,374,Sandymount,,53.3332284399006,-6.21640134211922,,,,
8220DB000375,375,Dromard Terrace,,53.3340611346518,-6.2143845130625,,,,
8220DB000381,381,St John's Church,,53.3243237661065,-6.21237419337667,,,,
8220DB000385,385,Newgrove Avenue,,53.332351023118,-6.21122768794002,,,,
8220DB000387,387,Sandymount,,53.3324995101993,-6.21574105767749,,,,
8220DB000388,388,Farney Park,,53.334508861965,-6.21848017255212,,,,
8220DB000389,389,Star of the Sea,,53.3352900817962,-6.21963388936862,,,,
8220DB000390,390,Tritonville Road,,53.3376299137845,-6.2222394793377,,,,
8220DB000391,391,Bath Street,,53.3400638554722,-6.22392535183325,,,,
8220DB000392,392,Ringsend,,53.3417336311665,-6.22741532105921,,,,
8220DB000393,393,Tritonville Road,,53.3369038877169,-6.22237479685263,,,,
8220DB000395,395,Ringsend Road,,53.3419400535651,-6.23527645441634,,,,
8220DB000396,396,Grand Canal Quay,,53.3424425175709,-6.2394759484262,,,,
8220DB000397,397,Pearse Square,,53.3427855554404,-6.24201500730761,,,,
8220DB000398,398,Erne Street,,53.3432949350358,-6.24547844686789,,,,
8220DB000399,399,Pearse Station,,53.3438668221062,-6.24830860143225,,,,
8220DB000400,400,Shaw Street,,53.344849,-6.25339,,,,
8220DB000403,403,Nassau Street,,53.3427135106709,-6.25670629404065,,,,
8220DB000404,404,Nassau Street,,53.3426633325105,-6.25634789239429,,,,
8220DB000405,405,Nassau Street,,53.3424816891816,-6.2556043726643,,,,
8220DB000406,406,Nassau Street,,53.3426061451636,-6.25612494578261,,,,
8220DB000407,407,Custom House,,53.348335,-6.253893,,,,
8220DB000408,408,Merrion Square North,,53.3409707826238,-6.25001923957642,,,,
8220DB000409,409,Holles Street,,53.3401367313169,-6.24769559556976,,,,
8220DB000410,410,Mount Street Lower,,53.3388134508634,-6.24389039032328,,,,
8220DB000411,411,Mount Street Bridge,,53.338117,-6.241772,,,,
8220DB000412,412,Haddington Road,,53.3352555102365,-6.2372793190562,,,,
8220DB000413,413,Lansdowne Park,,53.334094193305,-6.23654639405152,,,,
8220DB000414,414,Lansdowne Road,,53.3315738058948,-6.23447321695274,,,,
8220DB000415,415,American Embassy,,53.3303378154068,-6.23294774966437,,,,
8220DB000416,416,RDS Ballsbridge,,53.3286399201175,-6.22936956914703,,,,
8220DB000417,417,Merrion Road,,53.3276995856506,-6.22597042048855,,,,
8220DB000418,418,British Embassy,,53.3257198105114,-6.22339529752618,,,,
8220DB000419,419,Shrewsbury Park,,53.3239951058417,-6.22044950312351,,,,
8220DB000420,420,Merlyn Road,,53.3219108012885,-6.21750392172748,,,,
8220DB000421,421,Merrion View Avenue,,53.3200051794214,-6.21449112042242,,,,
8220DB000422,422,St Vincent's Hospital,,53.318064191863,-6.21032428070782,,,,
8220DB000423,423,Herbert Avenue,,53.3171485041341,-6.20740565828118,,,,
8220DB000424,424,Merrion Gates,,53.3153943801988,-6.20372686621344,,,,
8220DB000476,476,Merrion Gates,,53.3157515263706,-6.20476252273264,,,,
8220DB000477,477,Herbert Avenue,,53.3168630546822,-6.20695232009333,,,,
8220DB000478,478,St Vincent's Hospital,,53.3181142989155,-6.21126782530888,,,,
8220DB000479,479,Merrion Centre,,53.319143967621,-6.2134012866997,,,,
8220DB000480,480,Netherlands Embassy,,53.3208499799872,-6.2162872053677,,,,
8220DB000481,481,Wanderers FC,,53.322761,-6.21883,,,,
8220DB000482,482,Shrewsbury Road,,53.3247277780849,-6.22196529496771,,,,
8220DB000483,483,British Embassy,,53.3259441074939,-6.22397148052329,,,,
8220DB000485,485,RDS Ballsbridge,,53.3282515101272,-6.22863497077619,,,,
8220DB000486,486,RDS Ballsbridge,,53.3283287183649,-6.22899210119283,,,,
8220DB000487,487,American Embassy,,53.3308552893807,-6.23390230837209,,,,
8220DB000488,488,Lansdowne Park,,53.3330985546294,-6.23607694701107,,,,
8220DB000489,489,St Mary's Road South,,53.3349420031452,-6.2373523126562,,,,
8220DB000490,490,Haddington Road,,53.3365738419127,-6.23890680600167,,,,
8220DB000491,491,Mount Street Bridge,,53.3378140535091,-6.24133351088674,,,,
8220DB000492,492,Mount Street Lower,,53.338584685142,-6.24361446215909,,,,
8220DB000493,493,Holles Street,,53.3398534163774,-6.24737682273898,,,,
8220DB000494,494,Clare Street,,53.3414355833565,-6.25168225233917,,,,
8220DB000495,495,Pearse Station,,53.3435913198129,-6.24974670516903,,,,
8220DB000496,496,Busáras,,53.3494968761341,-6.25222357868164,,,,
8220DB000497,497,Connolly,,53.3505260753991,-6.25069434322382,,,,
8220DB000499,499,Summerhill Parade,,53.3574503386161,-6.24908862686224,,,,
8220DB000500,500,Ballybough Road,,53.3590360763177,-6.24628915528183,,,,
8220DB000501,501,Clonliffe Avenue,,53.3607056846882,-6.24369637425144,,,,
8220DB000509,509,Ballybough Road,,53.3606013493589,-6.24332503950194,,,,
8220DB000510,510,Charleville Avenue,,53.35918937754,-6.24571192723741,,,,
8220DB000511,511,Summerhill Parade,,53.3575155897132,-6.24863523337024,,,,
8220DB000512,512,Summerhill,,53.3559473573122,-6.25201971110246,,,,
8220DB000513,513,Rutland Street,,53.3552119629816,-6.25397276810398,,,,
8220DB000515,515,Portland Row,,53.35439,-6.2472,,,,
8220DB000516,516,North Strand Road,,53.35621,-6.244942,,,,
8220DB000518,518,Nottingham Street,,53.3589041624283,-6.2409909439451,,,,
8220DB000519,519,North Strand Fire Station,,53.3603387601165,-6.23953452865897,,,,
8220DB000522,522,Fairview,,53.363207,-6.2356,,,,
8220DB000523,523,Marino College,,53.364355,-6.231308,,,,
8220DB000525,525,Howth Road,,53.3649608735109,-6.22633091116316,,,,
8220DB000526,526,Copeland Grove,,53.3668695721479,-6.22111227858031,,,,
8220DB000527,527,Ashbrook,,53.3680198762275,-6.21267888054445,,,,
8220DB000528,528,Castle Grove,,53.369264080697,-6.20993674463178,,,,
8220DB000529,529,Collins Avenue,,53.3705774149451,-6.20761234516729,,,,
8220DB000530,530,Killester,,53.3712245323444,-6.20402332968282,,,,
8220DB000531,531,The Demesne,,53.3732509125103,-6.20130788472614,,,,
8220DB000532,532,The Meadows,,53.375802080403,-6.19347468575652,,,,
8220DB000533,533,Ennafort Park,,53.3775832778026,-6.18705613952442,,,,
8220DB000534,534,Cill Eanna,,53.3787502415594,-6.18164028998948,,,,
8220DB000535,535,Raheny,,53.380257073034,-6.17730695711373,,,,
8220DB000536,536,Raheny Library,,53.3804237567076,-6.17351172677606,,,,
8220DB000537,537,Avondale Park,,53.3799012003047,-6.16815263497725,,,,
8220DB000538,538,Maywood,,53.3801380645862,-6.16426418318854,,,,
8220DB000539,539,Foxfield,,53.3806736618095,-6.15935564153758,,,,
8220DB000540,540,Lonsdale,,53.3813362763679,-6.1551179435333,,,,
8220DB000541,541,James Larkin Road,,53.3818727077496,-6.15202806844666,,,,
8220DB000542,542,Strand View,,53.3836619200447,-6.14626794992908,,,,
8220DB000591,591,Kilbarrack Road,,53.3841675899781,-6.14468248664168,,,,
8220DB000592,592,James Larkin Road,,53.3827330098096,-6.14838287246945,,,,
8220DB000593,593,Howth Road,,53.3818486949688,-6.15163825716418,,,,
8220DB000594,594,Lonsdale,,53.3811633655567,-6.15556136213264,,,,
8220DB000595,595,Foxfield,,53.3805999504412,-6.15923856299832,,,,
8220DB000596,596,Shieling Square,,53.3802528433238,-6.16179397207691,,,,
8220DB000597,597,Maywood,,53.3798981358401,-6.16561235536735,,,,
8220DB000598,598,Avondale Park,,53.3798466295595,-6.16928237742033,,,,
8220DB000599,599,Raheny Library,,53.3803003189176,-6.17308107835305,,,,
8220DB000600,600,Raheny,,53.3802479252381,-6.17611981052539,,,,
8220DB000601,601,Cill Eanna,,53.3792234833174,-6.17966599663793,,,,
8220DB000602,602,Wade's Avenue,,53.3781425247901,-6.1830490710099,,,,
8220DB000603,603,Ennafort Park,,53.3773821590087,-6.18742542966496,,,,
8220DB000604,604,All Saints Road,,53.3763546440093,-6.19079085973447,,,,
8220DB000605,605,The Meadows,,53.375666662106,-6.19343532660645,,,,
8220DB000606,606,St Brigid's Church,,53.3747089784008,-6.19786466034239,,,,
8220DB000607,607,The Demesne,,53.372515779991,-6.20203021371956,,,,
8220DB000608,608,Killester,,53.3710783844633,-6.20446531476562,,,,
8220DB000609,609,Castle Grove,,53.3698375440776,-6.20862025648968,,,,
8220DB000610,610,Ashbrook,,53.3683623013066,-6.21153745527438,,,,
8220DB000611,611,Hollybrook Park,,53.366754679119,-6.21883292211135,,,,
8220DB000612,612,Copeland Avenue,,53.3657562265179,-6.2242091299833,,,,
8220DB000613,613,Marino Crescent Park,,53.3646174709891,-6.22681099838462,,,,
8220DB000614,614,Fairview,,53.363284,-6.234544,,,,
8220DB000616,616,North Strand Fire Station,,53.3598447138031,-6.2395548963026,,,,
8220DB000617,617,Strandville Avenue,,53.357894521071,-6.24200909637447,,,,
8220DB000618,618,Newcomen Bridge,,53.355807,-6.245148,,,,
8220DB000619,619,Amiens Street,,53.354198,-6.247095,,,,
8220DB000620,620,Talbot Street,,53.3509610944412,-6.25277955690348,,,,
8220DB000621,621,Talbot Street,,53.3505177759151,-6.25626764847564,,,,
8220DB000624,624,Ribh Road,,53.38018530713,-6.18912523804651,,,,
8220DB000625,625,Lein Gardens,,53.3817875653825,-6.18632129728301,,,,
8220DB000626,626,Edenmore Green,,53.3844945184151,-6.18405641915907,,,,
8220DB000627,627,Edenmore Green,,53.385407017017,-6.18200303261637,,,,
8220DB000628,628,Edenmore Grove,,53.3869549963204,-6.18390657920362,,,,
8220DB000629,629,Edenmore Drive,,53.3865279695229,-6.18596942471494,,,,
8220DB000630,630,Springdale Road,,53.3872439958511,-6.18932175227289,,,,
8220DB000633,633,Tonlegee Drive,,53.3896443404821,-6.18935518044481,,,,
8220DB000634,634,Tonlegee Avenue,,53.3902751966525,-6.18414110921006,,,,
8220DB000635,635,Glenwood Road,,53.3890225360658,-6.18392380127648,,,,
8220DB000636,636,Glenfarne Road,,53.3888586595165,-6.18674234809099,,,,
8220DB000637,637,Springdale Road,,53.3877918262024,-6.1898848542452,,,,
8220DB000638,638,Edenmore Avenue,,53.3867623213242,-6.18837999607754,,,,
8220DB000639,639,Edenmore Park,,53.3863330185323,-6.18674446075596,,,,
8220DB000640,640,Edenmore Grove,,53.3867053851996,-6.18345113980026,,,,
8220DB000641,641,Edenmore Green,,53.3858263828451,-6.18239108146194,,,,
8220DB000642,642,Edenmore Green,,53.384731848305,-6.18311422897616,,,,
8220DB000643,643,St Josephs Hospital,,53.3835661358811,-6.1838854683411,,,,
8220DB000644,644,Lein Park,,53.3823625142317,-6.18571057664617,,,,
8220DB000645,645,Ribh Road,,53.3801688019244,-6.18862988048628,,,,
8220DB000649,649,All Saints Road,,53.3762836659106,-6.18966656708744,,,,
8220DB000650,650,Sybil Hill Avenue,,53.3754028537338,-6.18552548323385,,,,
8220DB000651,651,All Saints Park,,53.3754794507715,-6.1799309090613,,,,
8220DB000653,653,Raheny,,53.3794630466244,-6.17534163896221,,,,
8220DB000654,654,Watermill Road,,53.379210075798,-6.17702098083078,,,,
8220DB000655,655,Watermill Drive,,53.3777386713847,-6.17543040232881,,,,
8220DB000656,656,St Anne's Avenue,,53.3764702007961,-6.17770919175966,,,,
8220DB000657,657,All Saints Park,,53.3755453978778,-6.17895111704479,,,,
8220DB000658,658,Waterfall Road,,53.3749800484815,-6.18313861991685,,,,
8220DB000659,659,Sybil Hill Avenue,,53.3752374406804,-6.1858782134899,,,,
8220DB000662,662,Clanmoyle Road,,53.3738704165791,-6.21262927512666,,,,
8220DB000664,664,Donnycarney Church,,53.3747192481248,-6.21950756213934,,,,
8220DB000665,665,Casino Park,,53.3724663177933,-6.22212646122623,,,,
8220DB000666,666,Mount Temple School,,53.3702331241213,-6.22426334784653,,,,
8220DB000667,667,Brian Road,,53.3679816454659,-6.22698684651141,,,,
8220DB000668,668,Marino Crescent Park,,53.364633,-6.229263,,,,
8220DB000669,669,Malahide Road,,53.3663170047508,-6.22867890531785,,,,
8220DB000670,670,Mount Temple School,,53.3689561148085,-6.22602966389211,,,,
8220DB000671,671,Nazareth House,,53.3707168419685,-6.22415305315518,,,,
8220DB000672,672,Donnycarney Road,,53.3734663500286,-6.22107782075337,,,,
8220DB000674,674,Parnell Park,,53.3746860705057,-6.21608209235965,,,,
8220DB000709,709,St Brigid's Church,,53.3750380598504,-6.19703913201504,,,,
8220DB000722,722,Raheny Station,,53.3811136996508,-6.17572202474466,,,,
8220DB000723,723,Raheny Road,,53.3841517880034,-6.17572742205128,,,,
8220DB000724,724,Grange Park Road,,53.3869554629401,-6.17451001140907,,,,
8220DB000725,725,Ardscoil La Salle,,53.3895723720634,-6.17048881126756,,,,
8220DB000726,726,Grange Road,,53.3917483514218,-6.16761378066966,,,,
8220DB000727,727,Ardara Avenue,,53.3937048518631,-6.16683802482072,,,,
8220DB000728,728,Holy Trinity Church,,53.3953162106826,-6.16349059472377,,,,
8220DB000729,729,Holy Trinity NS,,53.3965584587976,-6.16244459517592,,,,
8220DB000730,730,Grangemore Road,,53.3981666977284,-6.16181886879421,,,,
8220DB000738,738,Grange Road,,53.3976003550304,-6.16181320548643,,,,
8220DB000739,739,Holy Trinity Church,,53.3951450858597,-6.16346788917263,,,,
8220DB000740,740,Ardara Avenue,,53.3931412776214,-6.16701261526443,,,,
8220DB000741,741,St Donagh's Road,,53.3919077252208,-6.16745657119052,,,,
8220DB000742,742,Raheny Road,,53.3898234138452,-6.16986158795113,,,,
8220DB000743,743,Woodbine Park,,53.3880248638023,-6.17273523820562,,,,
8220DB000744,744,Belmont Park,,53.3850921988006,-6.17492048437068,,,,
8220DB000745,745,Raheny Station,,53.381343565605,-6.17547167673029,,,,
8220DB000746,746,Kildare Street,,53.3401536166372,-6.25559428153351,,,,
8220DB000747,747,Kildare Street,,53.3399308030255,-6.25572351873597,,,,
8220DB000748,748,Huguenot Cemetery,,53.3385095343946,-6.25503066600718,,,,
8220DB000749,749,Baggot Street Lower,,53.3376207009507,-6.25080214718478,,,,
8220DB000750,750,Fitzwilliam Street,,53.3365710800751,-6.24848750327114,,,,
8220DB000751,751,Herbert Street,,53.3353205479248,-6.24657163552756,,,,
8220DB000752,752,Baggot Street Upper,,53.333745,-6.244496,,,,
8220DB000753,753,Waterloo Road,,53.3324533902693,-6.24352105457144,,,,
8220DB000754,754,Burlington Road,,53.3307837823714,-6.2442803272738,,,,
8220DB000755,755,Wellington Lane,,53.3288280456955,-6.2451413679877,,,,
8220DB000756,756,Royal Hospital,,53.3263997617783,-6.2425987467031,,,,
8220DB000757,757,Donnybrook Village,,53.3240813371564,-6.23958650985938,,,,
8220DB000758,758,Victoria Avenue,,53.3226869429527,-6.23767738043155,,,,
8220DB000759,759,Donnybrook Stadium,,53.3203488508422,-6.23334551683732,,,,
8220DB000760,760,Donnybrook Church,,53.3183301872864,-6.2305619559304,,,,
8220DB000761,761,Teresian School,,53.3161004007968,-6.22748721370701,,,,
8220DB000762,762,RTE,,53.3145170648478,-6.22437094406494,,,,
8220DB000763,763,Belfield Court,,53.3123201447816,-6.22110031908025,,,,
8220DB000769,769,Belfield Court,,53.311901092315,-6.22132785711802,,,,
8220DB000770,770,RTE,,53.3146361875598,-6.22573181130972,,,,
8220DB000771,771,Teresian School,,53.3158800692413,-6.22778152242804,,,,
8220DB000772,772,Donnybrook Garage,,53.3184852574538,-6.23132106360093,,,,
8220DB000773,773,Donnybrook Road,,53.3199163484772,-6.23327331931081,,,,
8220DB000774,774,Donnybrook Garda Station,,53.3216121235616,-6.23549999641974,,,,
8220DB000775,775,Donnybrook Village,,53.3234897098036,-6.23908544721613,,,,
8220DB000776,776,Morehampton Terrace,,53.3254792402812,-6.24173582106075,,,,
8220DB000777,777,Royal Hospital,,53.32695,-6.24369,,,,
8220DB000779,779,Waterloo Road,,53.3286887363292,-6.24544736264854,,,,
8220DB000780,780,Burlington Road,,53.3310633511681,-6.24434391821207,,,,
8220DB000781,781,Baggot Street,,53.332626271424,-6.24366410261763,,,,
8220DB000782,782,Baggot Street Upper,,53.3335838144569,-6.24460076754333,,,,
8220DB000783,783,Baggot Street Lower,,53.3353085373743,-6.24697756396985,,,,
8220DB000784,784,Fitzwilliam Street,,53.3364567280898,-6.24865737146514,,,,
8220DB000785,785,Pembroke Street Lower,,53.3371058976017,-6.25185937348663,,,,
8220DB000786,786,Embassy of Malta,,53.33513,-6.25612,,,,
8220DB000790,790,Stephen's Green Nth,,53.339316,-6.258367,,,,
8220DB000791,791,Stephen's Green Nth,,53.3388796212322,-6.25698283049026,,,,
8220DB000792,792,Dawson Street,,53.3404489881504,-6.25858580845119,,,,
8220DB000793,793,Dawson Street,,53.3408597860288,-6.25840386924731,,,,
8220DB000795,795,Berkeley Road,,53.3587400432977,-6.26972427815325,,,,
8220DB000796,796,Berkeley Road,,53.3600182144434,-6.26985278581192,,,,
8220DB000797,797,Phibsborough PO,,53.3607260028205,-6.27466216472105,,,,
8220DB000798,798,Rathdown Road,,53.3594766361423,-6.27964070094016,,,,
8220DB000799,799,Charleville Road,,53.3588687100101,-6.28173855104546,,,,
8220DB000800,800,Annamore Parade,,53.3580651515231,-6.2846104289481,,,,
8220DB000801,801,Annamore Road,,53.3574704998113,-6.2876390824353,,,,
8220DB000802,802,Drumalee,,53.3564983224928,-6.29129872279033,,,,
8220DB000803,803,Oxmantown Road,,53.3547130307104,-6.29404421386,,,,
8220DB000804,804,O'Devaney Gardens,,53.3536849851854,-6.29569268053352,,,,
8220DB000807,807,Phoenix Park,,53.3515565121154,-6.29770038608451,,,,
8220DB000808,808,North Circular Road,,53.3539946695196,-6.29534982649487,,,,
8220DB000809,809,Marlborough Road,,53.355260739805,-6.29337634624951,,,,
8220DB000810,810,Ellesmere Avenue,,53.3570998601571,-6.28999764127672,,,,
8220DB000811,811,Annamore Road,,53.3575671567867,-6.28748496819667,,,,
8220DB000812,812,Annamore Parade,,53.3582663606523,-6.284226743738,,,,
8220DB000813,813,Charleville Road,,53.3591900460972,-6.28095937438322,,,,
8220DB000814,814,St Peter's Church,,53.3605400151369,-6.27609704929995,,,,
8220DB000817,817,Mater Hospital,,53.3596462179679,-6.2696124384477,,,,
8220DB000818,818,O'Connell Avenue,,53.3584811208081,-6.26922394483134,,,,
8220DB000819,819,Blessington Street,,53.3563040208489,-6.26599198569773,,,,
8220DB000820,820,Carnlough Road,,53.361967795144,-6.29351397958427,,,,
8220DB000821,821,Drumcliffe Road,,53.3645519035043,-6.29383143635442,,,,
8220DB000822,822,Mulroy Road,,53.3671206776262,-6.29182032110431,,,,
8220DB000823,823,Kilkieran Road,,53.3682351539493,-6.29118965054413,,,,
8220DB000824,824,Bannow Road,,53.3697478518934,-6.29326309496119,,,,
8220DB000825,825,St Finbar's Road,,53.3704294399324,-6.29693282591372,,,,
8220DB000826,826,Carnlough Road,,53.371217854378,-6.30116950755918,,,,
8220DB000827,827,Ventry Park,,53.3712939490655,-6.30399186938366,,,,
8220DB000828,828,Broombridge Station,,53.3710448241108,-6.29974867792342,,,,
8220DB000829,829,St Finbar's Road,,53.3703968945592,-6.29591219523143,,,,
8220DB000830,830,Bannow Road,,53.3696243716567,-6.29217098015254,,,,
8220DB000831,831,Mulroy Road,,53.367661969108,-6.29133281290905,,,,
8220DB000832,832,Drumcliffe Road,,53.3636294546039,-6.29406363489174,,,,
8220DB000833,833,Swilly Road,,53.3617761473196,-6.29331128383968,,,,
8220DB000834,834,Binns Bridge,,53.3619754108367,-6.26042763798587,,,,
8220DB000835,835,St Brigid's Road Lower,,53.3626280166348,-6.26327096161368,,,,
8220DB000836,836,Claude Road,,53.3632915018052,-6.26624916236245,,,,
8220DB000837,837,David Road,,53.3637784077115,-6.26821283704865,,,,
8220DB000838,838,Whitworth Road,,53.3643193961163,-6.27018939098142,,,,
8220DB000839,839,David Road,,53.3637449204179,-6.26776341254,,,,
8220DB000840,840,Claude Road,,53.3632433495627,-6.26540966607288,,,,
8220DB000841,841,St Patrick's Road,,53.3621221995284,-6.26063201536313,,,,
8220DB000842,842,Stephen's Green East,,53.3372519750062,-6.25631338920498,,,,
8220DB000843,843,Stephen's Green East,,53.3370024314213,-6.2564587206996,,,,
8220DB000845,845,Leeson Street Lower,,53.3354534454643,-6.25625161826541,,,,
8220DB000846,846,Fitzwilliam Place,,53.3334537329999,-6.25411090847857,,,,
8220DB000847,847,Leeson Street Upper,,53.3316014451627,-6.25221961965177,,,,
8220DB000848,848,Sussex Road,,53.3297279908157,-6.24888799835488,,,,
8220DB000849,849,Appian Way,,53.3278982725888,-6.24792700914133,,,,
8220DB000850,850,Chelmsford Road,,53.3260857395309,-6.25119903116797,,,,
8220DB000851,851,Ranelagh,,53.3250997052106,-6.25322101602942,,,,
8220DB000852,852,Ranelagh,,53.3244292664921,-6.25285808537085,,,,
8220DB000853,853,Sandford Road,,53.3225927700056,-6.24836957707265,,,,
8220DB000854,854,Larch Grove,,53.3216316712779,-6.24657756321518,,,,
8220DB000855,855,Sandford Road,,53.3193022984556,-6.24281536591722,,,,
8220DB000856,856,Clonskeagh Road,,53.3176551118152,-6.24082667970819,,,,
8220DB000857,857,Clonskeagh Hospital,,53.3165673800964,-6.23837983033545,,,,
8220DB000858,858,Clonskeagh,,53.3140944728122,-6.2383015721788,,,,
8220DB000881,881,Clonskeagh,,53.3145635684102,-6.23841733156698,,,,
8220DB000882,882,Clonskeagh Hospital,,53.3167046565363,-6.23915467649306,,,,
8220DB000883,883,Eglinton Road,,53.3176851573292,-6.24103558331433,,,,
8220DB000884,884,Norwood Park,,53.319996991214,-6.24421284442794,,,,
8220DB000885,885,Hollybank Avenue Lower,,53.3212589673318,-6.24629262123041,,,,
8220DB000886,886,Merton Drive,,53.3225973962227,-6.24868463259583,,,,
8220DB000887,887,Ranelagh,,53.3242077457399,-6.25246180680162,,,,
8220DB000893,893,Cowper Road,,53.3160725163363,-6.2591581800642,,,,
8220DB000894,894,Cowper Road,,53.3151931375335,-6.26419198051229,,,,
8220DB000895,895,Palmeston Villas,,53.3139322642579,-6.26401801846629,,,,
8220DB000896,896,Palmerston Park,,53.3133721496302,-6.26135424684808,,,,
8220DB000897,897,Palmerston Road,,53.314299620262,-6.25838984601839,,,,
8220DB000903,903,Chelmsford Road,,53.3255834292541,-6.25249565673744,,,,
8220DB000904,904,Appian Way,,53.3274174409115,-6.24884751574078,,,,
8220DB000906,906,Leeson Street Upper,,53.3288107659722,-6.24763437727541,,,,
8220DB000907,907,Dartmouth Road,,53.3297193588566,-6.25075010860467,,,,
8220DB000908,908,Grand Parade,,53.3311542855348,-6.25237303421842,,,,
8220DB000909,909,Fitzwilliam Place,,53.333147659918,-6.25407836385529,,,,
8220DB000958,958,St. Donagh's,,53.3909165331479,-6.16378528809522,,,,
8220DB000959,959,Grange Road,,53.3910184657006,-6.16690837598947,,,,
8220DB000960,960,Tonlegee Road,,53.3911576199014,-6.17187930562012,,,,
8220DB000961,961,Millwood Villas,,53.3910568299901,-6.17645454975126,,,,
8220DB000962,962,Limewood,,53.3907949286211,-6.18285597422987,,,,
8220DB000969,969,Northside SC,,53.3956824564158,-6.2154896382204,,,,
8220DB000972,972,Aulden Grange,,53.3969960428841,-6.23492379932213,,,,
8220DB000979,979,St Canice's GNS,,53.3899538085893,-6.29710063600173,,,,
8220DB000980,980,Finglas Sports Centre,,53.389804569147,-6.30303046268457,,,,
8220DB000981,981,Finglas Garda Station,,53.3897809067944,-6.30706083246079,,,,
8220DB000983,983,Mellowes Road,,53.3901416743196,-6.31095569222063,,,,
8220DB000984,984,Finglas Garda Station,,53.3899113880259,-6.30675494955138,,,,
8220DB000985,985,Finglas Sports Centre,,53.3899247513532,-6.30389772523613,,,,
8220DB000987,987,Finglas,,53.390219926862,-6.29937538551077,,,,
8220DB000988,988,St Canice's GNS,,53.3898902365416,-6.29579510810412,,,,
8220DB000993,993,Astro Park,,53.397702596997,-6.22922517485579,,,,
8220DB001005,1005,Limewood,,53.3909514065877,-6.1819170834231,,,,
8220DB001013,1013,Earlsfort Terrace,,53.334181,-6.258346,,,,
8220DB001015,1015,Adelaide Road,,53.3327303534168,-6.25996635506886,,,,
8220DB001016,1016,South Richmond Street,,53.331061,-6.264386,,,,
8220DB001017,1017,Rathmines Road Lower,,53.329369,-6.264322,,,,
8220DB001018,1018,St Mary's College,,53.3275854590911,-6.26464974527373,,,,
8220DB001019,1019,Military Road,,53.32643,-6.26483,,,,
8220DB001020,1020,Rathmines,,53.32508,-6.26508,,,,
8220DB001021,1021,Rathmines Road Upper,,53.3213802466074,-6.26565212597859,,,,
8220DB001022,1022,Summerville Park,,53.3195217438255,-6.26455667416163,,,,
8220DB001023,1023,Rathmines Close,,53.3170461890185,-6.26491228899521,,,,
8220DB001024,1024,Frankfort Avenue,,53.3158523430749,-6.26502075611147,,,,
8220DB001025,1025,Trinity Hall,,53.3115998654594,-6.26247682304637,,,,
8220DB001026,1026,Orwell Park,,53.3091057707857,-6.26032708219741,,,,
8220DB001027,1027,Dodder Walk,,53.3087379400331,-6.25791094112817,,,,
8220DB001028,1028,South Hill,,53.3084991105588,-6.25571468112149,,,,
8220DB001062,1062,South Hill,,53.3082596341802,-6.2553192658689,,,,
8220DB001063,1063,Dodder Walk,,53.3085720815395,-6.25886311823078,,,,
8220DB001064,1064,Dartry Road,,53.3094291383453,-6.260929220589,,,,
8220DB001065,1065,Trinity Hall,,53.3118290249002,-6.26278268022841,,,,
8220DB001066,1066,Rathmines Road Upper,,53.3137534805829,-6.26408530832738,,,,
8220DB001067,1067,Rathmines Close,,53.3170507712282,-6.26522730644198,,,,
8220DB001068,1068,Church Avenue,,53.320558444719,-6.26538523670884,,,,
8220DB001069,1069,Swan Centre,,53.3232852636115,-6.26561989541274,,,,
8220DB001070,1070,Rathmines,,53.3249801839816,-6.26535598291684,,,,
8220DB001071,1071,St Mary's College,,53.32729,-6.26485,,,,
8220DB001072,1072,South Richmond Street,,53.3310269732592,-6.26458511395504,,,,
8220DB001074,1074,Harcourt Luas,,53.334001,-6.261742,,,,
8220DB001076,1076,Swan Centre,,53.3231305919114,-6.26549106260882,,,,
8220DB001077,1077,Rathmines Garda Station,,53.321572988534,-6.2665449849921,,,,
8220DB001078,1078,Rathgar Place,,53.3194127648938,-6.26880907035696,,,,
8220DB001079,1079,Frankfort Avenue,,53.3166546241928,-6.27075187426881,,,,
8220DB001080,1080,Auburn Villas,,53.3149091987178,-6.27187306349646,,,,
8220DB001081,1081,Rathgar Village,,53.3126497028562,-6.27349517348773,,,,
8220DB001082,1082,Terenure Road East,,53.3116759487029,-6.27577063203852,,,,
8220DB001083,1083,Brighton Road,,53.311145561259,-6.27825325307526,,,,
8220DB001085,1085,St Joseph's BNS,,53.3100994852247,-6.28237731397305,,,,
8220DB001086,1086,Terenure Road West,,53.3096695705149,-6.28560608300463,,,,
8220DB001087,1087,Greenlea Road,,53.3103351137685,-6.28939126007519,,,,
8220DB001088,1088,Parkmore Drive,,53.3109735887836,-6.29317763255717,,,,
8220DB001089,1089,Lavarna Grove,,53.3116555855459,-6.29750266095148,,,,
8220DB001090,1090,Kimmage Road West,,53.3121038877658,-6.30057644060381,,,,
8220DB001091,1091,Whitehall Road,,53.3124406081629,-6.30529057738079,,,,
8220DB001117,1117,Terenure Road West,,53.3118906498583,-6.29822868798702,,,,
8220DB001118,1118,Hazelbrook Road,,53.3113669927789,-6.29491782827779,,,,
8220DB001119,1119,Parkmore Drive,,53.3109356902408,-6.29241376344752,,,,
8220DB001120,1120,Terenure Garda Station,,53.3101981052294,-6.28798605930363,,,,
8220DB001121,1121,Templeogue Road,,53.3090015976368,-6.28540774793681,,,,
8220DB001122,1122,Rathdown Park,,53.3072196342858,-6.28837535252904,,,,
8220DB001123,1123,Lakelands Park,,53.3055770247341,-6.29103703014007,,,,
8220DB001124,1124,Terenure College,,53.3041728176707,-6.2934038975232,,,,
8220DB001159,1159,Bushy Park House,,53.3023902202094,-6.29634084228484,,,,
8220DB001160,1160,Terenure College,,53.3043935295018,-6.29312500171527,,,,
8220DB001161,1161,Lakelands Park,,53.3060631361465,-6.29046240113909,,,,
8220DB001162,1162,Rathdown Park,,53.3077322505964,-6.2877695971447,,,,
8220DB001163,1163,Terenure Library,,53.3088733210487,-6.28586309179703,,,,
8220DB001164,1164,Terenure Road East,,53.3104116361098,-6.28158440093591,,,,
8220DB001165,1165,Brighton Road,,53.3117124365704,-6.27642950385614,,,,
8220DB001166,1166,Winton Avenue,,53.3138905067936,-6.27290478405396,,,,
8220DB001167,1167,Garville Avenue,,53.3159449091946,-6.27139594843828,,,,
8220DB001168,1168,Spire View Lane,,53.3179291684206,-6.27000988256434,,,,
8220DB001169,1169,Rathmines Park,,53.3200562645615,-6.26855785990236,,,,
8220DB001170,1170,Rathmines Garda Station,,53.3216895475244,-6.26652524878686,,,,
8220DB001171,1171,Gardiner Street Lower,,53.3503176870253,-6.2542629490582,,,,
8220DB001172,1172,Railway Street,,53.3517433497793,-6.25525621732706,,,,
8220DB001173,1173,Gardiner Street Lower,,53.3537055683594,-6.25667832329383,,,,
8220DB001174,1174,Mountjoy Square West,,53.3561865814529,-6.25854512541131,,,,
8220DB001175,1175,Gardiner Street Upper,,53.358413194465,-6.26084318209768,,,,
8220DB001176,1176,Coolock Lane Park,,53.3993550470634,-6.22187780324994,,,,
8220DB001177,1177,Clonshaugh Industrial Estate West,,53.4008973630828,-6.22525748280848,,,,
8220DB001178,1178,Clonshaugh Industrial Estate North,,53.4034534096905,-6.21884924282634,,,,
8220DB001179,1179,Clonshaugh Industrial Estate East,,53.3999311495912,-6.21892118309902,,,,
8220DB001184,1184,Talbot Street,,53.3508599227592,-6.25385022800029,,,,
8220DB001185,1185,Oak Road,,53.3763670141117,-6.22151304646931,,,,
8220DB001186,1186,Belton Park Road,,53.3776431058353,-6.2263299378604,,,,
8220DB001187,1187,Celtic Park Road,,53.3786075086935,-6.23135544113251,,,,
8220DB001188,1188,Grace Park Heights,,53.3800184911121,-6.23559608319276,,,,
8220DB001190,1190,Grace Park Heights,,53.3801561172397,-6.23578580779391,,,,
8220DB001191,1191,Grace Park Meadows,,53.379217188348,-6.23307384015298,,,,
8220DB001192,1192,Celtic Park Road,,53.3786331967642,-6.23066293111023,,,,
8220DB001193,1193,The Yard,,53.3779921991309,-6.22744276884898,,,,
8220DB001194,1194,Belton Park Road,,53.3775262086269,-6.22511728190611,,,,
8220DB001195,1195,Oak Road,,53.3763899322009,-6.22124153964156,,,,
8220DB001196,1196,Elm Mount Road,,53.3777875069851,-6.2149152956023,,,,
8220DB001197,1197,Killester Avenue,,53.3792322771511,-6.21175833300343,,,,
8220DB001198,1198,Mornington Grove,,53.3825121951907,-6.20691559067282,,,,
8220DB001199,1199,Mask Avenue,,53.3849844627771,-6.20276761448293,,,,
8220DB001200,1200,Coolock Village,,53.3869626486611,-6.20103048909789,,,,
8220DB001201,1201,Brookville Crescent,,53.3907898125494,-6.19614784293642,,,,
8220DB001202,1202,Newtown Cottages,,53.3925013826625,-6.19342905043287,,,,
8220DB001203,1203,Newtown Road,,53.3967263536286,-6.18753567030061,,,,
8220DB001205,1205,Clare Hall,,53.4015026048782,-6.18185822928644,,,,
8220DB001218,1218,Belcamp Lane,,53.3997058969218,-6.18428091971538,,,,
8220DB001219,1219,Danieli Road,,53.3813021270883,-6.20833439206846,,,,
8220DB001220,1220,Killester Avenue,,53.3787625062934,-6.21219890153818,,,,
8220DB001221,1221,Mayfield Park,,53.3768165000717,-6.21609825408438,,,,
8220DB001222,1222,Ardlea Road,,53.384066161835,-6.20685028183392,,,,
8220DB001223,1223,Chanel Avenue,,53.3852506198767,-6.20851435239852,,,,
8220DB001224,1224,Maryfield Crescent,,53.3866441577942,-6.21093649115354,,,,
8220DB001225,1225,Maryfield Drive,,53.3868593792141,-6.21390426931253,,,,
8220DB001226,1226,Ardmore Drive,,53.3885824619164,-6.21492967615918,,,,
8220DB001227,1227,Castlekevin Road,,53.3911373107638,-6.2150783660515,,,,
8220DB001228,1228,Kilbarron Road,,53.3924289764997,-6.21851273726687,,,,
8220DB001229,1229,Kilbarron Drive,,53.394311601171,-6.22542628929815,,,,
8220DB001231,1231,Castletimon Road,,53.3954889982924,-6.22784342643998,,,,
8220DB001232,1232,Castletimon Park,,53.3952854835247,-6.23048341001448,,,,
8220DB001233,1233,Castletimon Drive,,53.3943619873989,-6.23124350090559,,,,
8220DB001234,1234,Ballyshannon Avenue,,53.3946878729367,-6.23261339665844,,,,
8220DB001235,1235,Kilbarron Road,,53.3947366846993,-6.22560408418954,,,,
8220DB001237,1237,Cromcastle Avenue,,53.3926786799977,-6.21898347230117,,,,
8220DB001238,1238,Kilmore Avenue,,53.3915662233588,-6.21491005695051,,,,
8220DB001239,1239,St John of Gods NS,,53.389004189854,-6.2148819578447,,,,
8220DB001240,1240,Maryfield Crescent,,53.3868184280279,-6.21116973233954,,,,
8220DB001241,1241,Chanel Avenue,,53.3858794293685,-6.20908930804697,,,,
8220DB001242,1242,Ardbeg Road,,53.3844919489036,-6.20707292281256,,,,
8220DB001243,1243,Greencastle Avenue,,53.3949003131464,-6.19991374132292,,,,
8220DB001244,1244,Cromcastle Green,,53.392907241618,-6.22044750297321,,,,
8220DB001245,1245,Glin Avenue,,53.3979972686887,-6.20621940955621,,,,
8220DB001246,1246,Kilbarron Park,,53.3934932334612,-6.22297928856435,,,,
8220DB001247,1247,Greencastle Road,,53.3950810945047,-6.19998129722481,,,,
8220DB001248,1248,Coolock Industrial Estate,,53.3929893358591,-6.19716752337167,,,,
8220DB001249,1249,Coolock Drive,,53.3951809648939,-6.20124021736039,,,,
8220DB001250,1250,Bunratty Road,,53.3937390060985,-6.20755634582158,,,,
8220DB001251,1251,St Luke's Church,,53.3934573359087,-6.22237931759761,,,,
8220DB001253,1253,Tranquility Grove,,53.3938639430705,-6.21469359247894,,,,
8220DB001254,1254,Bunratty Road,,53.3951173598288,-6.21136299643065,,,,
8220DB001255,1255,Adare Park,,53.3943535024667,-6.20897407318871,,,,
8220DB001256,1256,Bunratty Avenue,,53.3936309457702,-6.20694437999343,,,,
8220DB001258,1258,Priorswood Road,,53.3981874224965,-6.19082713583414,,,,
8220DB001259,1259,The Link Road,,53.3985904097502,-6.19488548450884,,,,
8220DB001260,1260,Ferrycarrig Green,,53.4001778029071,-6.19881868347104,,,,
8220DB001262,1262,Moat Avenue,,53.4020042292112,-6.20490781615753,,,,
8220DB001265,1265,Marigold Avenue,,53.3982215297187,-6.1907053813919,,,,
8220DB001266,1266,Priorswood Road,,53.4020554115132,-6.20472518436231,,,,
8220DB001267,1267,Ferrycarrig Park,,53.4008555065952,-6.20024887014072,,,,
8220DB001268,1268,Belcamp Avenue,,53.3998942675419,-6.19789824293482,,,,
8220DB001269,1269,Marigold Road,,53.3984289595154,-6.19371931703884,,,,
8220DB001270,1270,Malahide Road,,53.3964970026771,-6.18722962380566,,,,
8220DB001272,1272,Newtown Cottages,,53.39288238223,-6.19187918573742,,,,
8220DB001273,1273,Coolock Leisureplex,,53.3911092146002,-6.19527728871218,,,,
8220DB001274,1274,St Brendans Church,,53.3889388170293,-6.19797019366682,,,,
8220DB001275,1275,Mask Avenue,,53.3855857653299,-6.20211085795644,,,,
8220DB001276,1276,Mask Park,,53.3843305541122,-6.20291542866154,,,,
8220DB001277,1277,Mornington Grove,,53.3826814602055,-6.20621696361687,,,,
8220DB001278,1278,College Green,,53.3442366224341,-6.26130011810005,,,,
8220DB001279,1279,College Green,,53.3442604935958,-6.26170466649104,,,,
8220DB001280,1280,McKelvey Avenue,,53.4001962883489,-6.30314329259755,,,,
8220DB001282,1282,South Great George's Street,,53.3423417958791,-6.26450108272731,,,,
8220DB001283,1283,South Great George's Street,,53.3418087219064,-6.26492822950034,,,,
8220DB001284,1284,Redmond's Hill,,53.3381283509666,-6.26587355723325,,,,
8220DB001285,1285,Camden Street Lower,,53.3343784055881,-6.2651247542572,,,,
8220DB001286,1286,Harrington Street,,53.3324996494988,-6.26572653484079,,,,
8220DB001287,1287,Synge Street,,53.3324783725628,-6.2661177906657,,,,
8220DB001288,1288,Victoria Street,,53.3323227536326,-6.26963762234934,,,,
8220DB001289,1289,Longwood Avenue,,53.332129361318,-6.27303883277026,,,,
8220DB001290,1290,Clanbrassil Street Upper,,53.3307310456544,-6.27516731880573,,,,
8220DB001291,1291,Harold's Cross Road,,53.3284466111552,-6.2763104414061,,,,
8220DB001292,1292,Harold's Cross Park,,53.325634,-6.278124,,,,
8220DB001293,1293,Parkview Avenue,,53.3228603639121,-6.27910262973284,,,,
8220DB001294,1294,Lady of the Rosary,,53.3206000262741,-6.27880330627753,,,,
8220DB001295,1295,Kenilworth Park,,53.31791,-6.27951,,,,
8220DB001296,1296,Mount Tallant Avenue,,53.3155627461345,-6.28164762292477,,,,
8220DB001297,1297,Whitton Road,,53.3124096124176,-6.28238961414195,,,,
8220DB001298,1298,Terenure,,53.3107469924722,-6.28302665100768,,,,
8220DB001299,1299,Rathfarnham Road,,53.3083957027798,-6.28390135641413,,,,
8220DB001300,1300,Rathdown Park,,53.3061507463854,-6.28342117670723,,,,
8220DB001335,1335,War Memorial Hall,,53.3074174243547,-6.28400061997863,,,,
8220DB001336,1336,Terenure,,53.3089009059751,-6.28403115972446,,,,
8220DB001337,1337,Terenure Road North,,53.311179037374,-6.2830693410482,,,,
8220DB001338,1338,Whitton Road,,53.3124303862627,-6.28258388430717,,,,
8220DB001339,1339,Harold's Cross Road,,53.3150238623403,-6.28229964697715,,,,
8220DB001340,1340,Mount Tallant Avenue,,53.3164701422711,-6.28099578090548,,,,
8220DB001341,1341,Kenilworth Park,,53.3192275894617,-6.27899363575735,,,,
8220DB001342,1342,Lady of the Rosary,,53.32129,-6.27934,,,,
8220DB001343,1343,Harold's Cross Park,,53.3226672850414,-6.27942564411739,,,,
8220DB001344,1344,St Clare's Primary School,,53.327171,-6.277608,,,,
8220DB001345,1345,Le Vere Terrace,,53.3287960763033,-6.27623629638881,,,,
8220DB001347,1347,Clanbrassil Street Upper,,53.3311830098566,-6.27534427274469,,,,
8220DB001348,1348,Spencer Street South,,53.3322495353619,-6.27388983282421,,,,
8220DB001349,1349,Carlisle Street,,53.3323857279044,-6.27088132287856,,,,
8220DB001350,1350,Harrington Street,,53.3325610927811,-6.26748081181986,,,,
8220DB001352,1352,Camden Street Lower,,53.3344454316074,-6.26540733380828,,,,
8220DB001353,1353,Pleasants Street,,53.3360095336299,-6.26541893799966,,,,
8220DB001354,1354,Aungier Street,,53.3390480888871,-6.2660765148576,,,,
8220DB001355,1355,Whitefriars Street,,53.3400962425888,-6.26583875541446,,,,
8220DB001357,1357,Exchequer Street,,53.3425678944056,-6.26459703020816,,,,
8220DB001358,1358,Dame Street,,53.3443047133849,-6.26288938939082,,,,
8220DB001359,1359,College Green,,53.3443994063613,-6.26136859043366,,,,
8220DB001360,1360,Raymond Street,,53.3319833877849,-6.27661827752552,,,,
8220DB001362,1362,National Stadium,,53.3312039603907,-6.27990787352224,,,,
8220DB001363,1363,St Anne's Road South,,53.3318459312211,-6.28516726502174,,,,
8220DB001364,1364,Dolphin Avenue,,53.3323458739421,-6.28806012034706,,,,
8220DB001365,1365,Dolphins Barn Church,,53.3329015319242,-6.29045531304391,,,,
8220DB001366,1366,St Andrews Centre,,53.3351498676844,-6.29431459059538,,,,
8220DB001367,1367,Rialto Church,,53.3356852929568,-6.29656066348713,,,,
8220DB001369,1369,Mayfield Road,,53.3388672150254,-6.30224552041051,,,,
8220DB001370,1370,Hybreasal House,,53.3391885807998,-6.30525124556593,,,,
8220DB001371,1371,Suir Road,,53.338876,-6.307907,,,,
8220DB001372,1372,Goldenbridge Avenue,,53.3381036945483,-6.30987444642345,,,,
8220DB001373,1373,Stephen's Road,,53.337774759112,-6.31203486545017,,,,
8220DB001374,1374,Southern Cross Avenue,,53.3392177102595,-6.31301407116772,,,,
8220DB001375,1375,Bulfin Road,,53.3395561606215,-6.31215973185631,,,,
8220DB001376,1376,South Circular Road,,53.3395079105859,-6.30875267180088,,,,
8220DB001377,1377,South Circular Road,,53.3391633646051,-6.3047416552708,,,,
8220DB001378,1378,Mayfield Road,,53.338827874904,-6.30137608273126,,,,
8220DB001379,1379,Rialto Luas,,53.3373397013518,-6.2991226532094,,,,
8220DB001380,1380,Rialto Church,,53.3356410022626,-6.2959767991197,,,,
8220DB001381,1381,St Andrews Centre,,53.3351237466265,-6.29374502629881,,,,
8220DB001382,1382,Dolphins Barn Church,,53.3331731706702,-6.29059460205893,,,,
8220DB001383,1383,Dolphin Avenue,,53.3322710783542,-6.28660666292572,,,,
8220DB001384,1384,Dufferin Avenue,,53.3313561981831,-6.28236415375616,,,,
8220DB001385,1385,Griffith College,,53.3318004002729,-6.27826227183308,,,,
8220DB001386,1386,Clogher Road,,53.3295526186271,-6.28444849901104,,,,
8220DB001387,1387,Aughavanagh Road,,53.32804,-6.28673,,,,
8220DB001388,1388,Rutland Avenue,,53.32673,-6.29118,,,,
8220DB001389,1389,Pearse College,,53.325935942053,-6.29549287147597,,,,
8220DB001391,1391,Clonmacnoise Road,,53.3228221151074,-6.2983641234991,,,,
8220DB001392,1392,Bangor Circle,,53.3224910151669,-6.30161978617075,,,,
8220DB001394,1394,Ferns Road,,53.3237430594661,-6.29676623092555,,,,
8220DB001395,1395,Saint Bernadette's,,53.3247339571109,-6.29629140292411,,,,
8220DB001396,1396,Crumlin Pool,,53.32487,-6.31484,,,,
8220DB001397,1397,Kildare Road,,53.3250914014139,-6.31385670005284,,,,
8220DB001398,1398,Windmill Road,,53.3253013793644,-6.31027545066518,,,,
8220DB001399,1399,Monasterboice Road,,53.3251428005771,-6.30543270310374,,,,
8220DB001400,1400,Bangor Circle,,53.3236248160114,-6.29981835985768,,,,
8220DB001401,1401,Clogher Road,,53.3253968158929,-6.29865198476899,,,,
8220DB001402,1402,Pearse College,,53.325987931117,-6.29598621972538,,,,
8220DB001403,1403,Rutland Avenue,,53.3271540648862,-6.28954413336686,,,,
8220DB001404,1404,Aughavanagh Road,,53.3282005181173,-6.28667972051609,,,,
8220DB001405,1405,Parnell Road,,53.3298216746236,-6.28440767368218,,,,
8220DB001406,1406,Dolphin's Barn,,53.3331529314518,-6.29169152684098,,,,
8220DB001407,1407,Crumlin Road,,53.33153850277,-6.29444367690884,,,,
8220DB001409,1409,Loreto College,,53.3303667447648,-6.29735815557588,,,,
8220DB001410,1410,Keeper Road,,53.3314169223623,-6.29977873066414,,,,
8220DB001411,1411,Brickfield Drive,,53.3320510264254,-6.30328200417234,,,,
8220DB001412,1412,Slievenamon Road,,53.3326816543057,-6.30591464267836,,,,
8220DB001413,1413,Brickfields Park,,53.3334413912374,-6.30878249418882,,,,
8220DB001414,1414,Benbulbin Road,,53.3333476064724,-6.31231480140328,,,,
8220DB001415,1415,Sperrin Road,,53.3324432485375,-6.31637452092601,,,,
8220DB001417,1417,Lady Of Mercy School,,53.3310322127926,-6.31956811898517,,,,
8220DB001418,1418,Cooley Road,,53.3300297592351,-6.32306077006057,,,,
8220DB001419,1419,Brandon Road,,53.3277177272247,-6.3229112430655,,,,
8220DB001423,1423,Crumlin Hospital,,53.3249994890334,-6.31944492192627,,,,
8220DB001424,1424,Crumlin Hospital,,53.3256625125853,-6.31674662153124,,,,
8220DB001425,1425,Cooley Road,,53.3270131719758,-6.31819475352095,,,,
8220DB001426,1426,Curlew Road,,53.3292748788446,-6.32242977116861,,,,
8220DB001427,1427,Mourne Road,,53.3302711584121,-6.32233061937906,,,,
8220DB001428,1428,Lady of Mercy School,,53.3313588786113,-6.31914988401267,,,,
8220DB001429,1429,Sperrin Road,,53.3325932071671,-6.31617341926304,,,,
8220DB001430,1430,Belbulbin Road,,53.3335737954735,-6.31114968646878,,,,
8220DB001432,1432,Brickfields Park,,53.3334987403056,-6.30838982573818,,,,
8220DB001433,1433,Slievenamon Road,,53.3325721531997,-6.30579886199235,,,,
8220DB001434,1434,Keeper Road,,53.3319924475904,-6.30232337915273,,,,
8220DB001435,1435,Keeper Road,,53.3313880462685,-6.29901413246615,,,,
8220DB001436,1436,Herberton Road,,53.3308849576931,-6.29651171993405,,,,
8220DB001438,1438,St Thomas Road,,53.3363829768538,-6.27941413618385,,,,
8220DB001439,1439,Rutledge Terrace,,53.33406,-6.28265,,,,
8220DB001440,1440,Donore Avenue,,53.3319900593805,-6.28331465216846,,,,
8220DB001441,1441,Bangor Road,,53.3248749009902,-6.30302633322185,,,,
8220DB001442,1442,Clonard Road,,53.32513,-6.30711,,,,
8220DB001443,1443,Civic Offices,,53.3451293906923,-6.26953955862608,,,,
8220DB001444,1444,Merchant's Quay,,53.345076,-6.274513,,,,
8220DB001445,1445,Usher's Quay,,53.34592,-6.279466,,,,
8220DB001447,1447,Victoria Quay,,53.346503,-6.285585,,,,
8220DB001449,1449,Phoenix Park Gate,,53.3481528299949,-6.2978960946772,,,,
8220DB001450,1450,Conyngham Road,,53.3481554042344,-6.30186141311768,,,,
8220DB001451,1451,Bridgewater House,,53.3482782789353,-6.30544644496588,,,,
8220DB001452,1452,Islandbridge,,53.3454209055007,-6.30803799944734,,,,
8220DB001453,1453,Galtymore Road,,53.3345361691504,-6.30675710143038,,,,
8220DB001454,1454,Suir Road Luas,,53.337765,-6.30753,,,,
8220DB001455,1455,Slievenamon Road,,53.3353851151101,-6.30577746031336,,,,
8220DB001456,1456,Good Counsel GAA,,53.334873309138,-6.30898110692312,,,,
8220DB001457,1457,Benbulbin Road,,53.3353026586989,-6.31264303832718,,,,
8220DB001458,1458,Davitt House,,53.3347706199223,-6.31697357484942,,,,
8220DB001459,1459,Drimnagh CU,,53.3340633154256,-6.31971923722773,,,,
8220DB001460,1460,Carrow Road,,53.3323561008246,-6.32103258420222,,,,
8220DB001462,1462,Galtymore Park,,53.3304629315882,-6.32382451982613,,,,
8220DB001463,1463,Galtymore Road,,53.3306239948586,-6.32377316172963,,,,
8220DB001464,1464,Davitt House,,53.3348988015381,-6.31650303670368,,,,
8220DB001465,1465,Good Counsel GAA,,53.3347967644626,-6.30865378723676,,,,
8220DB001466,1466,Galtymore Drive,,53.3345289258282,-6.30624685358976,,,,
8220DB001467,1467,Slievenamon Road,,53.3356573760233,-6.30596187788384,,,,
8220DB001468,1468,Suir Road Luas,,53.33755,-6.307569,,,,
8220DB001469,1469,Benbulbin Road,,53.3352591593202,-6.31338053815391,,,,
8220DB001471,1471,Islandbridge,,53.3455323201996,-6.3082889204929,,,,
8220DB001472,1472,Conyngham Road,,53.3484294679782,-6.30596616966113,,,,
8220DB001473,1473,Phoenix Park Gate,,53.3483059784729,-6.29855089897715,,,,
8220DB001474,1474,Parkgate Street,,53.3479479159584,-6.29236170464093,,,,
8220DB001476,1476,Sarsfield Quay,,53.3470736855762,-6.28467627539548,,,,
8220DB001478,1478,Four Courts,,53.345608,-6.272809,,,,
8220DB001479,1479,Ormond Quay,,53.34599,-6.26906,,,,
8220DB001480,1480,Ormond Quay Upper,,53.3457659646525,-6.27067029772414,,,,
8220DB001481,1481,Melrose Avenue,,53.3650538686119,-6.23989609720882,,,,
8220DB001482,1482,Marino Institute,,53.371664,-6.236528,,,,
8220DB001484,1484,Philipsburgh Avenue,,53.3636977091079,-6.2399670293288,,,,
8220DB001485,1485,Philipsburgh Avenue,,53.3640458176991,-6.23980241692247,,,,
8220DB001486,1486,Morrogh Terrace,,53.3709747783034,-6.23852480902206,,,,
8220DB001487,1487,Marino Institute,,53.3718192548925,-6.23667144996373,,,,
8220DB001488,1488,Turlogh Parade,,53.3710888554238,-6.23468777023624,,,,
8220DB001489,1489,Marino Church,,53.3701586652324,-6.23196100760236,,,,
8220DB001490,1490,Árd Scoil Rís,,53.36887682169,-6.22855766174829,,,,
8220DB001491,1491,Griffith Avenue,,53.3684677618855,-6.22764290979838,,,,
8220DB001492,1492,Marino Church,,53.3702573904197,-6.23255805716234,,,,
8220DB001493,1493,Turlogh Parade,,53.3712134044588,-6.23520862720418,,,,
8220DB001494,1494,Croydon Park,,53.3706730149261,-6.23574194163253,,,,
8220DB001495,1495,Croydon Park Avenue,,53.3687559405685,-6.23556569739488,,,,
8220DB001496,1496,Marino Green,,53.3671481166124,-6.23381383826092,,,,
8220DB001499,1499,Brian Road,,53.3657794887071,-6.23729658684485,,,,
8220DB001500,1500,Connolly,,53.350969,-6.250134,,,,
8220DB001502,1502,Tara Street Station,,53.3474210687958,-6.25409592678011,,,,
8220DB001505,1505,Parnell Street,,53.3540289631818,-6.2578969848714,,,,
8220DB001506,1506,Finglas Road,,53.3667778214166,-6.27237390919528,,,,
8220DB001507,1507,St Vincent's School,,53.368390520312,-6.27450269164138,,,,
8220DB001508,1508,Glasnevin Cemetery,,53.3699109022633,-6.2783335511568,,,,
8220DB001509,1509,Slaney Road,,53.3729258340421,-6.28422366048831,,,,
8220DB001510,1510,Ballyboggan Road,,53.3769069295213,-6.28731023718711,,,,
8220DB001511,1511,Tolka Vale,,53.3782345231781,-6.28775298457067,,,,
8220DB001512,1512,Prospect Hill,,53.3821743223388,-6.29172883549396,,,,
8220DB001514,1514,Drogheda Mall,,53.3894651562214,-6.30002191446058,,,,
8220DB001515,1515,Marino Park,,53.3661143161413,-6.23319541821689,,,,
8220DB001518,1518,Kildonan Road,,53.3906003885098,-6.31161412406028,,,,
8220DB001519,1519,Kildonan Park,,53.39244486956,-6.31175161798526,,,,
8220DB001520,1520,Barry Road,,53.3939201989249,-6.31184358657785,,,,
8220DB001521,1521,Plunkett Green,,53.3972212992971,-6.31075049408942,,,,
8220DB001523,1523,Plunkett Avenue,,53.3978788506134,-6.30958155709762,,,,
8220DB001524,1524,Barry Road,,53.3955562648928,-6.31059088714389,,,,
8220DB001525,1525,Casement Drive,,53.3940692958004,-6.31158206161738,,,,
8220DB001526,1526,Kildonan Park,,53.3923069370311,-6.31153153662508,,,,
8220DB001528,1528,St David's Terrace,,53.3561954281552,-6.29400002572951,,,,
8220DB001529,1529,Finglas Village,,53.3884588269272,-6.29815260689777,,,,
8220DB001531,1531,Clearwater SC,,53.3837436640274,-6.29336474093086,,,,
8220DB001532,1532,Prospect Hill,,53.381744117229,-6.29055850090005,,,,
8220DB001533,1533,Tolka Vale,,53.378967884758,-6.2874980880021,,,,
8220DB001534,1534,Ballyboggan Road,,53.375332839158,-6.28597560287496,,,,
8220DB001535,1535,The Willows,,53.3723059581374,-6.28236994393799,,,,
8220DB001536,1536,Glasnevin Cemetery,,53.3695033971686,-6.27687723281359,,,,
8220DB001537,1537,St Vincent's School,,53.3680662049778,-6.273208398937,,,,
8220DB001538,1538,Clearwater SC,,53.3844741413118,-6.29479375491463,,,,
8220DB001539,1539,Glasanaon Road,,53.3831357990658,-6.27919801572373,,,,
8220DB001540,1540,Johnstown Park,,53.3843403099774,-6.28420062884396,,,,
8220DB001547,1547,McKee Avenue Estate,,53.3952411658158,-6.30168636640583,,,,
8220DB001548,1548,McKee Avenue North,,53.3961101450105,-6.30274949327834,,,,
8220DB001549,1549,Plunkett Road,,53.3974326561122,-6.30663678307137,,,,
8220DB001558,1558,McKelvey Avenue,,53.3998175109931,-6.30305309451757,,,,
8220DB001559,1559,Plunkett Road,,53.3973411212961,-6.30652011500249,,,,
8220DB001560,1560,St Margaret's Road,,53.397007542354,-6.30454838145878,,,,
8220DB001566,1566,Johnstown Park,,53.3844074206077,-6.28386719661231,,,,
8220DB001567,1567,Griffith Drive,,53.3840139569876,-6.28026002177018,,,,
8220DB001573,1573,Wellmount Drive,,53.3840241647317,-6.31246066242432,,,,
8220DB001574,1574,Cardiffsbridge SC,,53.3855939979914,-6.31287964710487,,,,
8220DB001575,1575,Coláiste Íde,,53.3870661425713,-6.31274625802596,,,,
8220DB001576,1576,Cappagh Road,,53.3893174054908,-6.31304812471741,,,,
8220DB001577,1577,Abbottstown Road,,53.3898858080548,-6.31574701686645,,,,
8220DB001578,1578,Ratoath Drive,,53.3903851294541,-6.31801267740452,,,,
8220DB001579,1579,Heathfield Avenue,,53.3947,-6.32605,,,,
8220DB001582,1582,Heathfield Avenue,,53.39519,-6.32737,,,,
8220DB001584,1584,Abbottstown Road,,53.3898854600296,-6.31508548205008,,,,
8220DB001585,1585,Cardiffsbridge Road,,53.3887680197446,-6.31233314490446,,,,
8220DB001586,1586,Coláiste Íde,,53.3865250406196,-6.31261731806413,,,,
8220DB001587,1587,Wellmount Drive,,53.383466430314,-6.3117912065007,,,,
8220DB001591,1591,Wellmount Road,,53.3871387918528,-6.29949821324412,,,,
8220DB001592,1592,Tolka Valley Road,,53.379720918945,-6.28924160522583,,,,
8220DB001593,1593,Tolka Valley Park,,53.3789147733946,-6.29445974940212,,,,
8220DB001594,1594,St Helena's Road,,53.3807131944304,-6.29766484522038,,,,
8220DB001596,1596,St Malachy's NS,,53.3830410953015,-6.30081905725314,,,,
8220DB001597,1597,Valeview Gardens,,53.3804552155941,-6.30923466596562,,,,
8220DB001598,1598,Valeview Drive,,53.3802421780299,-6.3056204400567,,,,
8220DB001599,1599,Cardiffsbridge Road,,53.3808997507106,-6.31079541615784,,,,
8220DB001600,1600,Deanstown Avenue,,53.3835970178865,-6.3127631835118,,,,
8220DB001604,1604,Rathvilly Road,,53.3837454770658,-6.31627504223633,,,,
8220DB001605,1605,Albert College Park,,53.388252972158,-6.2607995902938,,,,
8220DB001606,1606,St Helena's Road,,53.380370683576,-6.30644208983686,,,,
8220DB001607,1607,Dunsink Drive,,53.3821613835434,-6.30342464753537,,,,
8220DB001608,1608,St Malachy's NS,,53.3830498568531,-6.29954091872958,,,,
8220DB001609,1609,Cloonlara,,53.3803842380755,-6.29728713957775,,,,
8220DB001610,1610,Tolka Valley Park,,53.3788077072716,-6.2964030706551,,,,
8220DB001614,1614,Church Street Upper,,53.3512573878221,-6.27375276357381,,,,
8220DB001615,1615,Church Street,,53.3478271653616,-6.27459733233133,,,,
8220DB001616,1616,St Michan's Church,,53.347285072294,-6.27502477300754,,,,
8220DB001617,1617,Capuchin Church,,53.349331207955,-6.27480696433912,,,,
8220DB001618,1618,Church Street Upper,,53.3508870581217,-6.2742484187074,,,,
8220DB001619,1619,Constitution Hill,,53.3529126950418,-6.27323519870162,,,,
8220DB001620,1620,Whitehall Church,,53.3832628572882,-6.24410591269662,,,,
8220DB001641,1641,Ellenfield Park,,53.3865272844342,-6.2423929664579,,,,
8220DB001642,1642,Whitehall Church,,53.3839478893434,-6.2436267222871,,,,
8220DB001643,1643,St Aidan's School,,53.3848022173745,-6.25100309535719,,,,
8220DB001644,1644,DCU Collins Avenue,,53.3868700413836,-6.25657120617442,,,,
8220DB001646,1646,DCU Collins Avenue,,53.3871546494696,-6.25698053714182,,,,
8220DB001647,1647,Blackhall Place,,53.34835,-6.28218,,,,
8220DB001648,1648,Stoneybatter,,53.3510913675303,-6.28280248510502,,,,
8220DB001649,1649,Manor Street,,53.35256,-6.28428,,,,
8220DB001654,1654,St David's Terrace,,53.35611,-6.29427,,,,
8220DB001655,1655,Blackhorse Avenue,,53.356732171847,-6.29696827411514,,,,
8220DB001656,1656,McKee Park,,53.3573,-6.29883,,,,
8220DB001657,1657,Dunard Walk,,53.3583921080637,-6.303076999237,,,,
8220DB001658,1658,Skreen Road,,53.3619888217441,-6.30951518790603,,,,
8220DB001659,1659,Croaghpatrick Road,,53.3632599650494,-6.30471669903602,,,,
8220DB001660,1660,Cabra Garda Station,,53.3651865517873,-6.30937355306517,,,,
8220DB001661,1661,Our Lady's Church,,53.3664436172408,-6.31309553779386,,,,
8220DB001662,1662,Baggot Road,,53.367603,-6.317543,,,,
8220DB001664,1664,Ashtown Grove,,53.3694085180285,-6.32385863047439,,,,
8220DB001665,1665,Kempton,,53.3706578377534,-6.32770193003479,,,,
8220DB001666,1666,Ashtown Roundabout,,53.3715971506478,-6.33059573112208,,,,
8220DB001667,1667,Castleknock Road,,53.3708697670474,-6.33450151947603,,,,
8220DB001668,1668,Old Race Course,,53.3708427403677,-6.34030355015358,,,,
8220DB001694,1694,Old Race Course,,53.3710173888657,-6.33993607589947,,,,
8220DB001695,1695,Ashtown Gate,,53.3710101423756,-6.33425558646775,,,,
8220DB001696,1696,Ashtown Roundabout,,53.3715415173175,-6.32983144331411,,,,
8220DB001697,1697,Kempton,,53.3708011457454,-6.32766625894216,,,,
8220DB001698,1698,Ashtown Grove,,53.3695772972019,-6.32371675132509,,,,
8220DB001699,1699,Baggot Road,,53.3687436056718,-6.32131499536448,,,,
8220DB001700,1700,Baggot Road,,53.3677088280568,-6.31740348546715,,,,
8220DB001701,1701,Our Lady's Church,,53.3665672561416,-6.31294038272441,,,,
8220DB001702,1702,Navan Road Church,,53.3656108301726,-6.31013813858873,,,,
8220DB001703,1703,Cabra Garda Station,,53.3647353990213,-6.30734783376241,,,,
8220DB001704,1704,Skreen Road,,53.36303,-6.30521,,,,
8220DB001705,1705,Ardpatrick Road,,53.3621807471602,-6.3084708336941,,,,
8220DB001706,1706,Blackhorse Avenue,,53.3600698255996,-6.30729237527244,,,,
8220DB001707,1707,Dunard Walk,,53.3584282663489,-6.30245957267131,,,,
8220DB001709,1709,Glenbeigh Avenue,,53.3568682016769,-6.29705299143726,,,,
8220DB001710,1710,Aughrim Street,,53.3555699040255,-6.29174149147947,,,,
8220DB001711,1711,Holy Family Church,,53.3545779754891,-6.28963290156871,,,,
8220DB001712,1712,Aughrim Court,,53.3533339170032,-6.28624259176384,,,,
8220DB001713,1713,Manor Street,,53.351907820017,-6.28332547345323,,,,
8220DB001714,1714,Stoneybatter,,53.3506378069371,-6.28188938800201,,,,
8220DB001715,1715,Blackhall Place,,53.3477,-6.28212,,,,
8220DB001724,1724,Clontarf Road,,53.3657153153763,-6.17444158948899,,,,
8220DB001725,1725,Doyle's Lane,,53.3637602626912,-6.17707965691366,,,,
8220DB001726,1726,Dollymount Park,,53.3622913896674,-6.17918587611664,,,,
8220DB001727,1727,Bull Island,,53.3604468636635,-6.18318608956813,,,,
8220DB001728,1728,Wooden Bridge,,53.3596562743545,-6.18616459625132,,,,
8220DB001729,1729,Clontarf Bus Garage,,53.358496905837,-6.19031550974053,,,,
8220DB001730,1730,Vernon Court,,53.3582310907412,-6.19412792894392,,,,
8220DB001731,1731,John the Baptist Church,,53.3590767534187,-6.19655620427267,,,,
8220DB001732,1732,Oultan Road,,53.3600629107601,-6.20234423812554,,,,
8220DB001733,1733,Clontarf Baths,,53.3602126155145,-6.20631955975878,,,,
8220DB001734,1734,Castle Avenue,,53.3603909611114,-6.2110149084861,,,,
8220DB001735,1735,The Stiles Road,,53.3611433270906,-6.21443920712788,,,,
8220DB001736,1736,St Lawrence Road,,53.3621421815528,-6.21692174662785,,,,
8220DB001737,1737,Alfie Byrne Road,,53.3628580243648,-6.21971672090975,,,,
8220DB001738,1738,Clontarf Road Pitches,,53.3634508756356,-6.22391433414591,,,,
8220DB001740,1740,Clontarf Road,,53.364032,-6.226107,,,,
8220DB001741,1741,Alfie Byrne Road,,53.3631169030858,-6.22080282346914,,,,
8220DB001742,1742,St Lawrence Road,,53.3621257933153,-6.21642658486162,,,,
8220DB001743,1743,The Court,,53.3611356864305,-6.21392866651198,,,,
8220DB001744,1744,Scoil Uí Chonaill,,53.3603486398948,-6.20879297700679,,,,
8220DB001745,1745,Clontarf Baths,,53.3603470796607,-6.20569788496817,,,,
8220DB001746,1746,Oultan Road,,53.3602565190474,-6.20266663792762,,,,
8220DB001747,1747,John the Baptist Church,,53.3593509922733,-6.19686014145276,,,,
8220DB001748,1748,Fortview Avenue,,53.3582570201128,-6.19346576182192,,,,
8220DB001749,1749,Clontarf Bus Garage,,53.3585903733484,-6.1905519401528,,,,
8220DB001750,1750,St Anne's Park,,53.3688677027256,-6.17780832862968,,,,
8220DB001751,1751,Wooden Bridge,,53.3598698762799,-6.18543432703186,,,,
8220DB001752,1752,Bull Island,,53.3611275917067,-6.18184991858566,,,,
8220DB001753,1753,Dollymount Park,,53.3627239628467,-6.17867157318113,,,,
8220DB001754,1754,Doyle's Lane,,53.3641156564687,-6.1768090335747,,,,
8220DB001755,1755,Seapark,,53.366429976972,-6.18712407524492,,,,
8220DB001756,1756,Dollymount Avenue,,53.3672099080423,-6.18285319862788,,,,
8220DB001757,1757,Park Lawn,,53.3686296418871,-6.18223672762261,,,,
8220DB001758,1758,Mount Prospect Avenue,,53.3681296759012,-6.17539029232827,,,,
8220DB001759,1759,The Oaks,,53.3660002227298,-6.17426410843031,,,,
8220DB001760,1760,Seapark Road,,53.3659722446511,-6.18775962192309,,,,
8220DB001761,1761,Seafield Road Junc,,53.3638373979427,-6.18804557985468,,,,
8220DB001762,1762,Seafield Road,,53.3637511873678,-6.19124983539217,,,,
8220DB001763,1763,Vernon Avenue,,53.3644067789412,-6.19536937525239,,,,
8220DB001764,1764,Blackheath Park,,53.3658929687427,-6.19557704044883,,,,
8220DB001765,1765,Blackheath Grove,,53.3665514240798,-6.20228141366141,,,,
8220DB001767,1767,Clontarf Castle,,53.3638273181033,-6.20522105323392,,,,
8220DB001769,1769,Park Lawn,,53.3688857835692,-6.18194028646478,,,,
8220DB001770,1770,Dollymount Avenue,,53.367083468779,-6.18281349818964,,,,
8220DB001771,1771,St Gabriel's Road,,53.3660419203317,-6.18524714015886,,,,
8220DB001772,1772,Clontarf Cemetery,,53.3650107475138,-6.20502103771963,,,,
8220DB001773,1773,Blackheath Park,,53.3668109134426,-6.20339753583734,,,,
8220DB001774,1774,Blackheath Avenue,,53.3661362371214,-6.19740006471563,,,,
8220DB001775,1775,Vernon Avenue,,53.3644399833339,-6.19518765370067,,,,
8220DB001776,1776,Seafield Road,,53.3638160053874,-6.19196835160384,,,,
8220DB001777,1777,Seafield Avenue,,53.366339,-6.190699,,,,
8220DB001778,1778,Mount Prospect Avenue,,53.3666136880703,-6.18915998517225,,,,
8220DB001782,1782,Brookwood Grove,,53.3823894993402,-6.19817165074133,,,,
8220DB001783,1783,McAuley Road,,53.3838032158922,-6.19596218165506,,,,
8220DB001784,1784,Gorsefield Court,,53.384620981283,-6.19298101335646,,,,
8220DB001785,1785,McAuley Park,,53.3825960633072,-6.19162361492977,,,,
8220DB001786,1786,McAuley Park,,53.3819941363959,-6.19223540172876,,,,
8220DB001788,1788,Millbrook Road,,53.391614051062,-6.17880643395275,,,,
8220DB001789,1789,Clonrosse Drive,,53.3942624574249,-6.1786031191802,,,,
8220DB001791,1791,O'Tooles GAA,,53.3965874453453,-6.18194749011522,,,,
8220DB001792,1792,Millbrook Road,,53.3935247615054,-6.17855943972057,,,,
8220DB001793,1793,Milbrook Grove,,53.3916843046715,-6.17869818119338,,,,
8220DB001794,1794,Thornhill Lane,,53.3694410695083,-6.17945199515198,,,,
8220DB001795,1795,Rosecourt,,53.3615033956228,-6.29686814224356,,,,
8220DB001796,1796,McAuley Park,,53.38178934558,-6.19117676197823,,,,
8220DB001797,1797,McAuley Drive,,53.3831278453854,-6.19172134030205,,,,
8220DB001798,1798,McAuley Road,,53.3843839100381,-6.19453950864013,,,,
8220DB001799,1799,Mask Crescent,,53.3830586828355,-6.19665511759705,,,,
8220DB001800,1800,Lady of Mercy Church,,53.3823067907417,-6.19924247171126,,,,
8220DB001801,1801,Brookwood Avenue,,53.3823969984385,-6.20224522816108,,,,
8220DB001802,1802,Cabra Road,,53.36142,-6.29461,,,,
8220DB001803,1803,Cabra Road,,53.36151,-6.29394,,,,
8220DB001804,1804,Rosecourt,,53.36163,-6.29735,,,,
8220DB001805,1805,Dunard,,53.361162703908,-6.29755786085374,,,,
8220DB001806,1806,Navan Road,,53.3629069059087,-6.30264214209815,,,,
8220DB001807,1807,Phoenix Park Avenue,,53.3744144643082,-6.33926288340455,,,,
8220DB001847,1847,Old Racecourse,,53.3729020091384,-6.33392626097368,,,,
8220DB001905,1905,Skreen Road,,53.3633175461639,-6.30307659409082,,,,
8220DB001906,1906,Old Cabra Road,,53.3612007620203,-6.29707553938411,,,,
8220DB001907,1907,Glenbeigh Road,,53.3599049453531,-6.29382178508836,,,,
8220DB001908,1908,Cabra Drive,,53.3586907975484,-6.29125607276843,,,,
8220DB001909,1909,Prussia Street,,53.356960263151,-6.28841072316956,,,,
8220DB001911,1911,Prussia Street,,53.356538,-6.2883,,,,
8220DB001913,1913,Cabra Drive,,53.358806332072,-6.29179232473619,,,,
8220DB001914,1914,Glenbeigh Road,,53.3602157626894,-6.29481602746614,,,,
8220DB001934,1934,Dame Street,,53.3441183606943,-6.26552532473919,,,,
8220DB001935,1935,Lord Edward Street,,53.3439343462159,-6.26832635157408,,,,
8220DB001937,1937,High Street,,53.3430874992184,-6.27315167433484,,,,
8220DB001938,1938,Thomas Street,,53.3429778949688,-6.27676060847678,,,,
8220DB001939,1939,Bridgefoot Street,,53.3429982683414,-6.2806646665428,,,,
8220DB001940,1940,James Street,,53.3435386006474,-6.28573434793232,,,,
8220DB001941,1941,Steeven's Lane,,53.3433454019831,-6.28918142026463,,,,
8220DB001942,1942,St James Hospital,,53.34215,-6.29468,,,,
8220DB001943,1943,Mount Brown,,53.3413732636991,-6.29834636571316,,,,
8220DB001944,1944,Old Kilmainham,,53.3406753265043,-6.3036154053404,,,,
8220DB001945,1945,Inchicore Library,,53.3405547841693,-6.30968740041896,,,,
8220DB001946,1946,Richmond Park,,53.3401188049318,-6.3163574768868,,,,
8220DB001947,1947,Camac Close,,53.3398178565031,-6.31796119520697,,,,
8220DB001948,1948,Tyrconnell Road,,53.3386619960474,-6.32204630155487,,,,
8220DB001949,1949,Tyrconnell Park,,53.3376414795987,-6.32361808034677,,,,
8220DB001950,1950,Oblates Church,,53.3360210442473,-6.32599413397448,,,,
8220DB001951,1951,Blackhorse Luas,,53.3331348380325,-6.32912521917047,,,,
8220DB001952,1952,Lansdowne Valley,,53.3317095154419,-6.33003676787117,,,,
8220DB001953,1953,Bluebell Luas,,53.3299944994922,-6.33208562071694,,,,
8220DB001954,1954,Muirfield Drive,,53.3287741741427,-6.33480565905476,,,,
8220DB001955,1955,Carriglea Industrial Estate,,53.327945707171,-6.3379156633768,,,,
8220DB001956,1956,Kylemore Luas,,53.3263654179245,-6.34384709401736,,,,
8220DB001981,1981,Kylemore Luas,,53.3264867532132,-6.34481822747156,,,,
8220DB001982,1982,Kylemore Road Junc,,53.3272299503081,-6.34202704890607,,,,
8220DB001984,1984,Bluebell Luas,,53.3294445318954,-6.33389372947138,,,,
8220DB001985,1985,Blackhorse Luas,,53.3329236566366,-6.32944879131458,,,,
8220DB001986,1986,Tyrconnell Road,,53.3353553796487,-6.32723649887249,,,,
8220DB001987,1987,Oblates Church,,53.3362899055526,-6.32593855473876,,,,
8220DB001988,1988,Hampton Court,,53.3382603815004,-6.32288800493359,,,,
8220DB001989,1989,Emmet Road,,53.3397064788455,-6.31898677046978,,,,
8220DB001990,1990,Myra Cottages,,53.340472781795,-6.31469157313953,,,,
8220DB001992,1992,Inchicore Library,,53.3406544981518,-6.30911277701976,,,,
8220DB001993,1993,Old Kilmainham,,53.3408,-6.30466,,,,
8220DB001994,1994,Mount Brown,,53.3414239628449,-6.29938060050009,,,,
8220DB001995,1995,Basin Street Lower,,53.3426751859667,-6.29321822745695,,,,
8220DB001996,1996,James Street,,53.3435600718342,-6.28848195376402,,,,
8220DB001997,1997,Thomas Street,,53.34364,-6.28542,,,,
8220DB001998,1998,Bridgefoot Street,,53.3431396148983,-6.28049377213711,,,,
8220DB001999,1999,Francis Street Junction,,53.3431192358309,-6.27658970136464,,,,
8220DB002001,2001,High Street,,53.3433104732309,-6.27365330535553,,,,
8220DB002002,2002,Lord Edward Street,,53.3437708065865,-6.2694443900314,,,,
8220DB002003,2003,Exchange Street Upper,,53.3440412686003,-6.2682619415957,,,,
8220DB002085,2085,RTE,,53.3151737463869,-6.22018615619695,,,,
8220DB002086,2086,Nutley Avenue,,53.3181567845485,-6.21470338209092,,,,
8220DB002087,2087,Ailesbury Road,,53.3206094716409,-6.212829685015,,,,
8220DB002088,2088,St Vincent's Hospital,,53.3172966893469,-6.21609017469623,,,,
8220DB002089,2089,RTE,,53.315301993767,-6.21974555361791,,,,
8220DB002094,2094,Coombe Hospital,,53.3347519664049,-6.28975063819717,,,,
8220DB002095,2095,Crumlin SC,,53.3290374667767,-6.3024707515015,,,,
8220DB002096,2096,Guinness RFC,,53.3280835904812,-6.30681749101654,,,,
8220DB002097,2097,Iveagh Gardens,,53.3274327540337,-6.30972580638998,,,,
8220DB002099,2099,Drimnagh Road,,53.3255615813916,-6.3166004693825,,,,
8220DB002101,2101,Crumlin Hospital,,53.3249545652162,-6.31817063885906,,,,
8220DB002102,2102,Balfe Road,,53.324194846075,-6.32614190218012,,,,
8220DB002103,2103,Walkinstown Road,,53.32208269548,-6.32999241707338,,,,
8220DB002105,2105,Walkinstown Parade,,53.3236525793889,-6.33749707765403,,,,
8220DB002181,2181,Long Mile Road,,53.3238376853462,-6.33917121398624,,,,
8220DB002182,2182,Walkinstown Parade,,53.3239619234578,-6.33518822198748,,,,
8220DB002183,2183,Walkinstown Shopping Centre,,53.321703980838,-6.33054760884826,,,,
8220DB002184,2184,Drimnagh Road Junc,,53.3229966132175,-6.32914609742308,,,,
8220DB002185,2185,Slievebloom Road,,53.3242587027673,-6.32749048930553,,,,
8220DB002186,2186,Crumlin Road,,53.3269332843419,-6.31253797965372,,,,
8220DB002187,2187,Iveagh Grounds,,53.3280452768584,-6.30728442530442,,,,
8220DB002188,2188,Crumlin College,,53.3290169228299,-6.30292198124809,,,,
8220DB002189,2189,Crumlin SC,,53.329695395882,-6.30007240820087,,,,
8220DB002190,2190,Dolphin's Barn,,53.3327705719691,-6.29260771619783,,,,
8220DB002191,2191,Islandbridge Gate,,53.3480255718777,-6.31044326467114,,,,
8220DB002192,2192,UCD Boat Club,,53.347245622936,-6.31567109288468,,,,
8220DB002193,2193,Garda Rowing Club,,53.3463845503877,-6.32345529052176,,,,
8220DB002194,2194,Military Road,,53.3461933372464,-6.32840430346692,,,,
8220DB002195,2195,St Mary's Hospital,,53.3467441138053,-6.33758999273197,,,,
8220DB002196,2196,Chapelizod,,53.347834625121,-6.34167815146673,,,,
8220DB002197,2197,Lucan Road,,53.34816555341,-6.34674221487069,,,,
8220DB002198,2198,Belgrove Park,,53.3506251417953,-6.35106328860524,,,,
8220DB002200,2200,Kylemore Road,,53.3502827503671,-6.35295415067497,,,,
8220DB002243,2243,Glenaulin,,53.3519743826815,-6.35569799515708,,,,
8220DB002244,2244,Belgrove Park,,53.3508843467058,-6.35160907436146,,,,
8220DB002245,2245,Laurence Brook,,53.3494632047044,-6.34828421128998,,,,
8220DB002246,2246,Chapelizod,,53.34827,-6.34363,,,,
8220DB002247,2247,St Mary's Hospital,,53.3467528589766,-6.33628291602209,,,,
8220DB002248,2248,Military Road,,53.3463209318655,-6.32788863731602,,,,
8220DB002249,2249,Garda Boat Club,,53.34658,-6.32125,,,,
8220DB002250,2250,Salmon Pool,,53.3474385870512,-6.31533304000412,,,,
8220DB002251,2251,Islandbridge Gate,,53.3481320367099,-6.31097979230894,,,,
8220DB002255,2255,East Wall Road,,53.3602300963722,-6.23826189020208,,,,
8220DB002256,2256,West Road,,53.3583489412297,-6.23565015244242,,,,
8220DB002257,2257,Strangford Road East,,53.3563824156513,-6.23821028357832,,,,
8220DB002258,2258,St Mary's Road,,53.3546537542947,-6.23801117708441,,,,
8220DB002259,2259,Church Road,,53.3535381306959,-6.23672019068215,,,,
8220DB002260,2260,Kilane Road,,53.3517785077757,-6.23503525981767,,,,
8220DB002261,2261,Church Court,,53.3526385466371,-6.23241589368512,,,,
8220DB002262,2262,Merchants Road,,53.3535229015383,-6.22659560204483,,,,
8220DB002264,2264,Alexandra Road,,53.3511016045535,-6.22092777641825,,,,
8220DB002265,2265,Bond Drive,,53.352115,-6.215298,,,,
8220DB002270,2270,Ferry Terminal,,53.345706120618,-6.1956186550476,,,,
8220DB002274,2274,Alexandra Road,,53.3501863044238,-6.2036311442849,,,,
8220DB002278,2278,East Road,,53.354371,-6.229865,,,,
8220DB002279,2279,Caledon Road,,53.3529413710509,-6.23162219875025,,,,
8220DB002280,2280,Oxford Terrace,,53.3523117215819,-6.23705623867306,,,,
8220DB002281,2281,St Mary's Road North,,53.3536641097546,-6.23673001255049,,,,
8220DB002282,2282,St Mary's Road,,53.3548411662372,-6.23852925147983,,,,
8220DB002283,2283,Portside Court,,53.3583262112741,-6.235936552433,,,,
8220DB002310,2310,Werburgh Street,,53.3424457017989,-6.26979842837403,,,,
8220DB002311,2311,Kevin Street,,53.3382852826629,-6.27049246703832,,,,
8220DB002312,2312,St Luke's Avenue,,53.3388788545751,-6.27548423467162,,,,
8220DB002313,2313,Ardee Court,,53.3387423330556,-6.27847818154428,,,,
8220DB002314,2314,Cork Street,,53.33825,-6.28068,,,,
8220DB002315,2315,Brickfield Lane,,53.3375364314381,-6.28523928429946,,,,
8220DB002317,2317,St Mary's Road,,53.3234185687127,-6.31887655923768,,,,
8220DB002318,2318,Somerville Avenue,,53.3219800054738,-6.31884304552821,,,,
8220DB002319,2319,Crumlin Garda Station,,53.3195647461053,-6.3152003885886,,,,
8220DB002327,2327,St Agnes Road,,53.3168544333041,-6.31676307428075,,,,
8220DB002328,2328,Crumlin Garda Station,,53.31959,-6.31552,,,,
8220DB002329,2329,Crumlin Village,,53.3209014798777,-6.31693402537415,,,,
8220DB002330,2330,Sommerville Avenue,,53.3221480438958,-6.31928677990814,,,,
8220DB002331,2331,St Mary's Road,,53.3245717749239,-6.31779537774905,,,,
8220DB002332,2332,Walkinstown Mall,,53.3208746366531,-6.33101530032294,,,,
8220DB002333,2333,Walkinstown Roundabout,,53.3178417645942,-6.33266465395949,,,,
8220DB002378,2378,Walkinstown Road,,53.3181478211841,-6.33269775229584,,,,
8220DB002379,2379,Marion Villas,,53.3378334357789,-6.28464170707989,,,,
8220DB002380,2380,Ardee Street,,53.33851,-6.28031,,,,
8220DB002382,2382,St Luke's Avenue,,53.338857810983,-6.27838342591743,,,,
8220DB002383,2383,Patrick's Cathedral,,53.339458068261,-6.27265258255334,,,,
8220DB002385,2385,Patrick Street,,53.3423151191354,-6.27195136781826,,,,
8220DB002386,2386,New Street South,,53.3379073675241,-6.27232481699146,,,,
8220DB002387,2387,Long Lane,,53.3365844247191,-6.27282879101049,,,,
8220DB002388,2388,St. Kevin's Parade,,53.3344588046365,-6.27438623129611,,,,
8220DB002389,2389,St Clare's Avenue,,53.3249290292017,-6.27919952128773,,,,
8220DB002390,2390,Mount Argus Park,,53.3215286268265,-6.2839898347087,,,,
8220DB002391,2391,Mount Argus Church,,53.3201975133242,-6.28642995566543,,,,
8220DB002392,2392,Kimmage Grove,,53.3187491224222,-6.29135130183595,,,,
8220DB002393,2393,Corrib Road,,53.3152036113078,-6.29545530463236,,,,
8220DB002394,2394,Poddle Park,,53.3132590569273,-6.29775401743367,,,,
8220DB002395,2395,Fortfield Road,,53.3115018115283,-6.30058535080868,,,,
8220DB002396,2396,Wainsfort,,53.3088190678338,-6.30217757945116,,,,
8220DB002397,2397,College Drive,,53.3065891639891,-6.30085550798026,,,,
8220DB002398,2398,Fortfield,,53.30526,-6.29974,,,,
8220DB002409,2409,Fortfield,,53.3053912217933,-6.30004776457778,,,,
8220DB002410,2410,College Drive,,53.3068543722854,-6.30117510851375,,,,
8220DB002411,2411,Wainsfort Park,,53.3091732491352,-6.30243364694296,,,,
8220DB002412,2412,Lavarna,,53.3109352197486,-6.3018234623024,,,,
8220DB002413,2413,Whitehall Road,,53.3128657948858,-6.30548384645275,,,,
8220DB002414,2414,Westbrook,,53.3140744704604,-6.31085404934157,,,,
8220DB002415,2415,Royston Village,,53.3150567500034,-6.31357689259081,,,,
8220DB002416,2416,Cromwellsfort Road,,53.3163390335298,-6.31781900012656,,,,
8220DB002417,2417,Cherry Grove,,53.31669,-6.32296,,,,
8220DB002418,2418,Bigger Road,,53.316969952115,-6.32688995930814,,,,
8220DB002419,2419,Cherryfield Road,,53.317079922615,-6.33024779704376,,,,
8220DB002431,2431,Cromwellsfort Road,,53.3172032128769,-6.33070828115485,,,,
8220DB002432,2432,Beechfield Avenue,,53.3170134667211,-6.32550738003141,,,,
8220DB002433,2433,Cherry Grove,,53.31663,-6.32067,,,,
8220DB002434,2434,Kimmage Road West,,53.3160265967778,-6.31606020141501,,,,
8220DB002435,2435,Westbrook,,53.3143144024734,-6.3112948332241,,,,
8220DB002436,2436,Lorcan O'Toole Park,,53.3137059070171,-6.30894752705153,,,,
8220DB002437,2437,Brookfield,,53.3126888171566,-6.30251926023377,,,,
8220DB002438,2438,Kimmage Road Lower,,53.3124895224758,-6.29925542426284,,,,
8220DB002439,2439,Ravensdale Park,,53.3135458708946,-6.29769757870967,,,,
8220DB002440,2440,Aideen Avenue,,53.3164008747397,-6.29432691528977,,,,
8220DB002441,2441,Kimmage Grove,,53.3190611622795,-6.29117372153076,,,,
8220DB002442,2442,Mount Argus Church,,53.3204524143849,-6.28602946037107,,,,
8220DB002443,2443,Brookfield,,53.3218921780869,-6.28364499642882,,,,
8220DB002444,2444,Mount Argus Road,,53.3242977354552,-6.27967529321173,,,,
8220DB002448,2448,Cashel Road,,53.3193092472153,-6.30414780696661,,,,
8220DB002449,2449,Armagh Road,,53.3209851812037,-6.30507207177197,,,,
8220DB002450,2450,Scoil Una Naofa,,53.3202310999896,-6.30766878924252,,,,
8220DB002451,2451,St Agnes Park,,53.3191657562369,-6.31431548777235,,,,
8220DB002452,2452,St Peter's Road,,53.31614,-6.33199,,,,
8220DB002453,2453,Limekiln Grove,,53.3148278807863,-6.33053082340999,,,,
8220DB002462,2462,Greenhills CU,,53.3138231906995,-6.33002973232323,,,,
8220DB002463,2463,St Peter's Road,,53.31531,-6.33132,,,,
8220DB002464,2464,St Agnes Park,,53.3194811626132,-6.3131022216822,,,,
8220DB002465,2465,Armagh Road,,53.3199884645803,-6.30893928264191,,,,
8220DB002466,2466,Scoil Colm,,53.3206542345147,-6.3064511763571,,,,
8220DB002467,2467,Cashel Road,,53.3192341833888,-6.30392562805676,,,,
8220DB002471,2471,Larkfield Park,,53.3186815798053,-6.28914750109224,,,,
8220DB002472,2472,Harolds Cross NS,,53.3176779065494,-6.28560029534873,,,,
8220DB002473,2473,Clareville Road,,53.3178887291035,-6.28338538434532,,,,
8220DB002474,2474,Westfield Road,,53.3187560070782,-6.2818195288864,,,,
8220DB002475,2475,Kenilworth Park,,53.318865886939,-6.28008893179158,,,,
8220DB002476,2476,Kenilworth Square North,,53.319043808898,-6.27746997537541,,,,
8220DB002477,2477,Kenilworth Road,,53.3198779433108,-6.27423910941846,,,,
8220DB002478,2478,Grosvenor Road,,53.32054,-6.26975,,,,
8220DB002479,2479,Grosvenor Road,,53.3202340044282,-6.27027690461026,,,,
8220DB002480,2480,Kenilworth Road,,53.3197445022995,-6.2743345579018,,,,
8220DB002481,2481,Harolds Cross Road,,53.3187380715415,-6.27808269931127,,,,
8220DB002482,2482,Clareville Road,,53.3189206310816,-6.28139262665718,,,,
8220DB002483,2483,Larkfield Grove,,53.317597986049,-6.28441772237937,,,,
8220DB002484,2484,Larkfield Park,,53.3185468354216,-6.28915289128925,,,,
8220DB002485,2485,Sundrive Road,,53.31979157654,-6.29133967375748,,,,
8220DB002486,2486,Blarney Park,,53.3210753974037,-6.29311972472245,,,,
8220DB002487,2487,Stannaway Road,,53.3218163769698,-6.29528179712861,,,,
8220DB002488,2488,Kilfenora Road,,53.3203554286508,-6.29871745782563,,,,
8220DB002489,2489,Clonfert Road,,53.3194152019764,-6.30085632158328,,,,
8220DB002492,2492,Stannaway Avenue,,53.3163063601077,-6.30788411891406,,,,
8220DB002494,2494,Stannaway Road,,53.3196966737549,-6.30042484360661,,,,
8220DB002495,2495,Ferns Road,,53.3212199106282,-6.29694178180123,,,,
8220DB002496,2496,Eamonn Ceannt Park,,53.3219677485347,-6.29392474193043,,,,
8220DB002497,2497,Sundrive Park,,53.3203299516141,-6.29190358357236,,,,
8220DB002498,2498,IFSC,,53.34828,-6.25027,,,,
8220DB002499,2499,Custom House Quay,,53.348128,-6.247128,,,,
8220DB002500,2500,Beckett Bridge,,53.347788338046,-6.2423799310183,,,,
8220DB002501,2501,Spencer Place,,53.3473759111851,-6.23635869880854,,,,
8220DB002502,2502,New Wapping Street,,53.34913,-6.2353,,,,
8220DB002508,2508,East Wall Road,,53.3528641016115,-6.22581174728395,,,,
8220DB002634,2634,Clanbrassil Street,,53.3328912744974,-6.27538045641684,,,,
8220DB002635,2635,Lombard Street West,,53.3342508123621,-6.27492017787537,,,,
8220DB002636,2636,New Street South,,53.3365804387889,-6.27317433216033,,,,
8220DB002637,2637,Heuston Station,,53.345846,-6.294308,,,,
8220DB002638,2638,St Johns Road West,,53.3456587537059,-6.2969590983528,,,,
8220DB002640,2640,Inchicore Road,,53.342044525613,-6.30889257217382,,,,
8220DB002641,2641,Camac Court,,53.341966007297,-6.31541363492027,,,,
8220DB002642,2642,Grattan Crescent,,53.341209,-6.319739,,,,
8220DB002643,2643,Sarsfield Road,,53.34154,-6.320927,,,,
8220DB002644,2644,Sarsfield Medical,,53.3419905931282,-6.32738226562619,,,,
8220DB002645,2645,Lally Road,,53.3416965343707,-6.33077287022906,,,,
8220DB002646,2646,Decies Road,,53.3414944858307,-6.33367925990101,,,,
8220DB002647,2647,Markievicz Park,,53.3406470674021,-6.33800739822258,,,,
8220DB002648,2648,Ramillies Road,,53.3397230210145,-6.34265370103926,,,,
8220DB002649,2649,Thomond Road,,53.3391105767283,-6.34580104128991,,,,
8220DB002650,2650,Landen Road,,53.3377655575806,-6.346679023362,,,,
8220DB002652,2652,Kylemore Avenue,,53.3388459496904,-6.34810890913175,,,,
8220DB002653,2653,Ballyfermot Crescent,,53.3402347651824,-6.34844568463056,,,,
8220DB002654,2654,Ballyfermot Road,,53.341298730205,-6.34868990718238,,,,
8220DB002655,2655,Ballyfermot Parade,,53.3421381592165,-6.35284757646734,,,,
8220DB002656,2656,Ballyfermot,,53.3426234944756,-6.35871610719475,,,,
8220DB002657,2657,Clifden Road,,53.3413170608764,-6.36175486590333,,,,
8220DB002658,2658,Oranmore Road,,53.3391624351795,-6.36128182324467,,,,
8220DB002659,2659,Raheen Park Estate,,53.3370212365361,-6.36047794826205,,,,
8220DB002660,2660,Cherry Orchard Avenue,,53.3357750383143,-6.36070594347998,,,,
8220DB002661,2661,Cherry Orchard Drive,,53.3354860616875,-6.36519177724852,,,,
8220DB002662,2662,Cherry Orchard Way,,53.3367935226561,-6.37009717708455,,,,
8220DB002663,2663,Croftwood Crescent,,53.3369139961318,-6.37036287855574,,,,
8220DB002664,2664,Cherry Orchard Drive,,53.3356011989999,-6.36506724567256,,,,
8220DB002665,2665,Croftwood Park,,53.3358803625996,-6.36052171092519,,,,
8220DB002666,2666,Clifden Drive,,53.3376007023392,-6.36078608663142,,,,
8220DB002667,2667,Clifden Road,,53.3406976282684,-6.36180864778955,,,,
8220DB002668,2668,Ballyfermot Community Centre,,53.3429828349129,-6.3632829723227,,,,
8220DB002670,2670,Spiddal Park,,53.3403899393809,-6.36755718950934,,,,
8220DB002672,2672,Cleggan Park,,53.3433589409048,-6.36777417735812,,,,
8220DB002688,2688,Cleggan Park,,53.3434635062577,-6.36819070772058,,,,
8220DB002689,2689,Blackditch Drive,,53.3431059999639,-6.36374383192324,,,,
8220DB002696,2696,Ballyfermot,,53.3426876161001,-6.35880375521618,,,,
8220DB002697,2697,Ballyfermot Parade,,53.3422774660962,-6.3531726104274,,,,
8220DB002700,2700,Kylemore Road,,53.3412966525983,-6.34853980731358,,,,
8220DB002701,2701,Ballyfermot Crescent,,53.3401698049064,-6.34829801891189,,,,
8220DB002702,2702,Kylemore Avenue,,53.3381032999033,-6.34770212371673,,,,
8220DB002703,2703,Thomond Road,,53.3382847108016,-6.34652378732584,,,,
8220DB002704,2704,Decies Road,,53.3392390804196,-6.34534554835475,,,,
8220DB002706,2706,Garryowen Road,,53.3400332754701,-6.34169556099462,,,,
8220DB002708,2708,Landen Road,,53.3418337142023,-6.33287006533031,,,,
8220DB002709,2709,Longmeadows,,53.342992781435,-6.33348566501732,,,,
8220DB002710,2710,Ballyfermot Road,,53.3421150911719,-6.33951220794532,,,,
8220DB002711,2711,Markievicz Park,,53.3417835325995,-6.34152251272884,,,,
8220DB002712,2712,St Gabriel's School,,53.342459848185,-6.34556625983834,,,,
8220DB002713,2713,St Gabriel's School,,53.3424806534687,-6.34706729796392,,,,
8220DB002714,2714,Markievicz Park,,53.3419051123135,-6.34186321373163,,,,
8220DB002715,2715,O'Hogan Road,,53.342613,-6.338661,,,,
8220DB002716,2716,Sarsfield Road,,53.3428406256586,-6.33224505599933,,,,
8220DB002717,2717,Seaview Avenue,,53.357243311732,-6.23746864709229,,,,
8220DB002718,2718,St Mary's Avenue,,53.3422822606705,-6.32767121720049,,,,
8220DB002719,2719,Woodfield Place,,53.3416457682976,-6.32011193943824,,,,
8220DB002720,2720,Church Road,,53.352055698768,-6.23311600529487,,,,
8220DB002721,2721,South Circular Road,,53.3432718551658,-6.31051108491761,,,,
8220DB002722,2722,South Circular Road,,53.3434371042583,-6.31139066326816,,,,
8220DB002726,2726,Long Mile Road,,53.3238143897113,-6.33042017959452,,,,
8220DB002727,2727,Drimnagh Castle,,53.3237589731417,-6.33288429328556,,,,
8220DB002728,2728,Walkinstown Park,,53.3213702338915,-6.33947719789329,,,,
8220DB002729,2729,Walkinstown Park Estate,,53.319110612096,-6.33599249403811,,,,
8220DB002730,2730,Walkinstown Community Centre,,53.3179354289289,-6.33422202603397,,,,
8220DB002774,2774,Walkinstown Avenue,,53.3182607318115,-6.33498987366937,,,,
8220DB002775,2775,Ep Mooney Park,,53.3227770258114,-6.34110386134691,,,,
8220DB002777,2777,Walkinstown Park Estate,,53.3191699520228,-6.33638045222645,,,,
8220DB002778,2778,Drimnagh Castle,,53.3240244462321,-6.33194320027363,,,,
8220DB002788,2788,Castlewood Avenue,,53.3228386545855,-6.26334121729297,,,,
8220DB002789,2789,Charleston Avenue,,53.3237164482382,-6.25943246214365,,,,
8220DB002790,2790,Oakley Road,,53.3246375121016,-6.25664770588743,,,,
8220DB002791,2791,Ranelagh Luas,,53.32499,-6.25537,,,,
8220DB002793,2793,Belgrave Square North,,53.3232622422406,-6.26095213828522,,,,
8220DB002794,2794,Castlewood Avenue,,53.3226105305642,-6.2643412501691,,,,
8220DB002795,2795,Leeson Village,,53.3285299793443,-6.24626462104792,,,,
8220DB002796,2796,Pembroke Road,,53.3326990430122,-6.24067308152855,,,,
8220DB002797,2797,Northumberland Road,,53.33226039426,-6.23653195679318,,,,
8220DB002798,2798,Pembroke Road,,53.3319991166579,-6.23588207570372,,,,
8220DB002799,2799,Eastmoreland Place,,53.3326920053369,-6.24202474194685,,,,
8220DB002800,2800,Sandymount Avenue,,53.3271442905285,-6.22248034499811,,,,
8220DB002801,2801,Wilfield Park,,53.329244385395,-6.21865452325091,,,,
8220DB002806,2806,Sandymount Avenue,,53.3303771444456,-6.21626506331828,,,,
8220DB002807,2807,Wilfield Park,,53.3287554951115,-6.21902021406244,,,,
8220DB002808,2808,Sandymount Station,,53.3268114454062,-6.2230646850991,,,,
8220DB002809,2809,Pearse Station,,53.342885,-6.249971,,,,
8220DB002810,2810,Merrion Square West,,53.340795,-6.250897,,,,
8220DB002811,2811,Merrion Street,,53.33936,-6.252308,,,,
8220DB002812,2812,Charlemont Street,,53.3319275450976,-6.26223625672886,,,,
8220DB002813,2813,Ranelagh Road,,53.3287117683217,-6.25867358187425,,,,
