stop_id,stop_code,stop_name,stop_desc,stop_lat,stop_lon,zone_id,stop_url,location_type,parent_station
8220DB000093,93,Gateway Avenue,,53.3923014677497,-6.26415297561013,,,,
8220DB000107,107,Crannogue Road,,53.4023798987989,-6.28049690990612,,,,
8220DB001008,1008,Kilbarrack Road,,53.3911267142898,-6.16693379574114,,,,
8220DB001013,1013,Earlsfort Terrace,,53.334181,-6.258346,,,,
8220DB001026,1026,Orwell Park,,53.3091057707857,-6.26032708219741,,,,
8220DB001027,1027,Dodder Walk,,53.3087379400331,-6.25791094112817,,,,
8220DB001028,1028,South Hill,,53.3084991105588,-6.25571468112149,,,,
8220DB001064,1064,Dartry Road,,53.3094291383453,-6.260929220589,,,,
8220DB001083,1083,Brighton Road,,53.311145561259,-6.27825325307526,,,,
8220DB001085,1085,St Joseph's BNS,,53.3100994852247,-6.28237731397305,,,,
8220DB001117,1117,Terenure Road West,,53.3118906498583,-6.29822868798702,,,,
8220DB001120,1120,Terenure Garda Station,,53.3101981052294,-6.28798605930363,,,,
8220DB001164,1164,Terenure Road East,,53.3104116361098,-6.28158440093591,,,,
8220DB001228,1228,Kilbarron Road,,53.3924289764997,-6.21851273726687,,,,
8220DB001709,1709,Glenbeigh Avenue,,53.3568682016769,-6.29705299143726,,,,
8220DB001711,1711,Holy Family Church,,53.3545779754891,-6.28963290156871,,,,
8220DB001715,1715,Blackhall Place,,53.3477,-6.28212,,,,
8220DB001735,1735,The Stiles Road,,53.3611433270906,-6.21443920712788,,,,
8220DB001736,1736,St Lawrence Road,,53.3621421815528,-6.21692174662785,,,,
8220DB001741,1741,Alfie Byrne Road,,53.3631169030858,-6.22080282346914,,,,
8220DB001774,1774,Blackheath Avenue,,53.3661362371214,-6.19740006471563,,,,
8220DB002697,2697,Ballyfermot Parade,,53.3422774660962,-6.3531726104274,,,,
8220DB002700,2700,Kylemore Road,,53.3412966525983,-6.34853980731358,,,,
8220DB004792,4792,Clanawley Road,,53.3727989041641,-6.2095029405602,,,,
8220DB004793,4793,Avila Park,,53.3922672634008,-6.32082537531738,,,,
8220DB004794,4794,Clontarf Road Station,,53.3630049005914,-6.22656242306654,,,,
8220DB004890,4890,Sycamore Park,,53.3951675776424,-6.29086258474817,,,,
8220DB004938,4938,Finglas Village,,53.3908615441467,-6.29835745694143,,,,
8220DB005060,5060,Dundaniel Road,,53.3971670149003,-6.22402924061363,,,,
8220DB005140,5140,Mayor Street Lower,,53.351124392735,-6.24553242137244,,,,
8220DB006239,6239,Dolmen Court,,53.3980420322581,-6.27139328390737,,,,
8220DB006241,6241,Crannogue Road,,53.4018159228276,-6.27940673236037,,,,
8220DB006273,6273,Sycamore Road,,53.3952753718538,-6.29085826487393,,,,
8220DB007945,7945,Palmerston Park,,53.3132287314443,-6.26446680377232,,,,
8220DB007952,7952,Shangarry,,53.3099040328605,-6.24854398496323,,,,
8220DB007953,7953,Milltown Luas,,53.3082477189689,-6.25266358032352,,,,
8220DB007959,7959,Kylemore Luas,,53.3273730183307,-6.34326759118782,,,,
8220DB008299,8299,Lagan Road,,53.375324,-6.299971,,,,
8220DB008306,8306,Drumcondra Road,,53.375943,-6.251218,,,,
8220DB008312,8312,Broombridge Road,,53.3748,-6.29975,,,,
8230DB002174,2174,Knockmeenagh Road,,53.3163990070179,-6.39122691549203,,,,
8230DB002203,2203,Palmerstown Avenue,,53.3532072699094,-6.37615579306221,,,,
8230DB002204,2204,Oakcourt Avenue,,53.3500190174257,-6.37765891901865,,,,
8230DB002215,2215,St Loman's Hospital,,53.3582062275899,-6.40897316569566,,,,
8230DB002216,2216,Ballyowen Lane,,53.3588652801404,-6.4159498243828,,,,
8230DB002965,2965,Whitechurch Road,,53.2803041452442,-6.28427735013822,,,,
8230DB002981,2981,Eden Avenue,,53.2812724044902,-6.27724991072003,,,,
8230DB002984,2984,Moyville Lawns,,53.281543707815,-6.29361592315133,,,,
8230DB003396,3396,Newcastle,,53.2997520681718,-6.49938085211241,,,,
8230DB003402,3402,Orchard Grove,,53.2996067627356,-6.4971204830639,,,,
8230DB003438,3438,Bianconi Avenue,,53.2914440314926,-6.42797074305297,,,,
8230DB003453,3453,Spring Bank,,53.2829608090178,-6.45281782644524,,,,
8230DB003454,3454,Millrace Estate,,53.2816538377806,-6.44769112034686,,,,
8230DB007062,7062,Whitebrook,,53.2848097660916,-6.3934937900363,,,,
8230DB007067,7067,Whitechurch Way,,53.2778338338952,-6.28875510387519,,,,
8230DB007142,7142,Foxborough Rise,,53.3398730210152,-6.42880291251302,,,,
8230DB007432,7432,Mill Road,,53.2818758392398,-6.45024755296342,,,,
8230DB007443,7443,Templeroan Estate,,53.2814641732317,-6.30695153563064,,,,
8240DB000227,227,Shanliss Drive,,53.391143808407,-6.25134450557175,,,,
8240DB000229,229,Oldtown Road,,53.391399515872,-6.25653643266209,,,,
8240DB001830,1830,Church Road,,53.4022055984772,-6.39648848329622,,,,
8240DB001837,1837,Corduff Crescent,,53.3958410611632,-6.37513445253103,,,,
8240DB001860,1860,St Ciaran's Church,,53.3932991276695,-6.41876115041913,,,,
8240DB001864,1864,Sacred Heart Church,,53.4018160068643,-6.41036928742601,,,,
8240DB001869,1869,Sheepmoor Avenue,,53.3962484951095,-6.39997555553145,,,,
8240DB001870,1870,Scoil Mhuire NS,,53.3980564812194,-6.39941147162782,,,,
8240DB001874,1874,Huntstown Court,,53.4002318019103,-6.41357141919568,,,,
8240DB001878,1878,Oakview,,53.3911805158508,-6.41556196261039,,,,
8240DB001879,1879,Blakestown Cross,,53.3911728451094,-6.40957814300456,,,,
8240DB001880,1880,Mount View Road,,53.3912254456454,-6.40745618116921,,,,
8240DB001883,1883,Scoil Oilibheir,,53.385744889481,-6.39820466073977,,,,
8240DB001887,1887,Castlefield Woods,,53.3829965720351,-6.41045415416237,,,,
8240DB001890,1890,Clonsilla Station,,53.3835365679955,-6.42202427927394,,,,
8240DB003679,3679,Fingal Co Co,,53.4590816825632,-6.22013572290444,,,,
8240DB003686,3686,Rathbeale Crescent,,53.4619183810104,-6.23018312491813,,,,
8240DB003864,3864,Abbylea Close,,53.4639991345891,-6.23413306202705,,,,
8240DB004323,4323,Whitestown Grove,,53.3963288599543,-6.39391251276652,,,,
8240DB004362,4362,Millennium Park,,53.3931135415888,-6.39876997645993,,,,
8220DB000092,92,Ballymun Library,,53.3898373340512,-6.26467424036105,,,,
8220DB000094,94,Civic Centre,,53.3960347624115,-6.26437695995448,,,,
8220DB000102,102,Balbutcher Lane,,53.397773070166,-6.26771985697013,,,,
8220DB001025,1025,Trinity Hall,,53.3115998654594,-6.26247682304637,,,,
8220DB001062,1062,South Hill,,53.3082596341802,-6.2553192658689,,,,
8220DB001074,1074,Harcourt Luas,,53.334001,-6.261742,,,,
8220DB001119,1119,Parkmore Drive,,53.3109356902408,-6.29241376344752,,,,
8220DB001706,1706,Blackhorse Avenue,,53.3600698255996,-6.30729237527244,,,,
8220DB001707,1707,Dunard Walk,,53.3584282663489,-6.30245957267131,,,,
8220DB001708,1708,Mc Kee Park,,53.35735,-6.29863,,,,
8220DB001712,1712,Aughrim Court,,53.3533339170032,-6.28624259176384,,,,
8220DB001714,1714,Stoneybatter,,53.3506378069371,-6.28188938800201,,,,
8220DB001734,1734,Castle Avenue,,53.3603909611114,-6.2110149084861,,,,
8220DB001737,1737,Alfie Byrne Road,,53.3628580243648,-6.21971672090975,,,,
8220DB001738,1738,Clontarf Road Pitches,,53.3634508756356,-6.22391433414591,,,,
8220DB001742,1742,St Lawrence Road,,53.3621257933153,-6.21642658486162,,,,
8220DB001773,1773,Blackheath Park,,53.3668109134426,-6.20339753583734,,,,
8220DB002499,2499,Custom House Quay,,53.348128,-6.247128,,,,
8220DB002653,2653,Ballyfermot Crescent,,53.3402347651824,-6.34844568463056,,,,
8220DB002654,2654,Ballyfermot Road,,53.341298730205,-6.34868990718238,,,,
8220DB002656,2656,Ballyfermot,,53.3426234944756,-6.35871610719475,,,,
8220DB002668,2668,Ballyfermot Community Centre,,53.3429828349129,-6.3632829723227,,,,
8220DB002688,2688,Cleggan Park,,53.3434635062577,-6.36819070772058,,,,
8220DB005006,5006,Le Fanu Road,,53.3462028544979,-6.35169957710728,,,,
8220DB005174,5174,Dundaniel Road,,53.3957088554205,-6.2250974742601,,,,
8220DB006068,6068,Ratoath Drive,,53.3902823798273,-6.31709957382237,,,,
8220DB007948,7948,Bankside Cottages,,53.3102693590525,-6.24710333082368,,,,
8220DB008246,8246,Griffith Avenue,,53.379305,-6.265414,,,,
8220DB008297,8297,Navan Road,,53.36454,-6.309,,,,
8220DB008300,8300,Glasnevin Woods,,53.376172,-6.292262,,,,
8220DB008303,8303,St Clare's,,53.37931,-6.27133,,,,
8220DB008304,8304,Drumcondra Road,,53.375672,-6.249473,,,,
8220DB008305,8305,Grace Park Road,,53.373883,-6.242673,,,,
8220DB008308,8308,St Clare's,,53.379157,-6.271342,,,,
8230DB002205,2205,Cherry Orchard Hosp,,53.344590643431,-6.37702396338742,,,,
8230DB002206,2206,Cherry Orchard Hosp,,53.3441867930205,-6.37574767124231,,,,
8230DB002207,2207,Kennelsfort Road,,53.3467566214721,-6.37966028357374,,,,
8230DB002208,2208,Kennelsfort Green,,53.3499128506157,-6.37778311866055,,,,
8230DB002210,2210,Woodfarm,,53.3523918339047,-6.37831989512395,,,,
8230DB002211,2211,Palmerstown Avenue,,53.3539587776176,-6.37457991504245,,,,
8230DB002212,2212,Palmerstown Village,,53.3559674221579,-6.37094299405762,,,,
8230DB002956,2956,Glenmore Park,,53.2781201946513,-6.28616435406072,,,,
8230DB002968,2968,Three Rock Rovers,,53.2803293260032,-6.273568644566,,,,
8230DB003397,3397,Orchard Grove,,53.2996364609557,-6.49662433850952,,,,
8230DB003425,3425,Newlands Cross,,53.3139017328605,-6.39199620954266,,,,
8230DB003427,3427,Newlands Cross,,53.3125160593383,-6.39188320972662,,,,
8230DB003437,3437,Fitzmaurice Road,,53.2834257325272,-6.4588750105462,,,,
8230DB003888,3888,Old Cornmill Road,,53.3551537748943,-6.46271792558206,,,,
8230DB007440,7440,An Post Edmonstown,,53.2761302274519,-6.29720552137443,,,,
8240DB000223,223,Shanliss Drive,,53.3910623454472,-6.25191920389028,,,,
8240DB000230,230,Shanowen Road,,53.3898880230163,-6.24906550786893,,,,
8240DB000231,231,Shanvarna Road Est,,53.3892400769847,-6.24594976380672,,,,
8240DB000232,232,Shantalla Avenue,,53.3879844259705,-6.2369805787303,,,,
8240DB001828,1828,Lady's Well Road,,53.4070254952423,-6.39800683658979,,,,
8240DB001829,1829,Parslickstown Ave,,53.4061988263088,-6.39534560192333,,,,
8240DB001838,1838,Waterville Road,,53.3960110854464,-6.37375958722475,,,,
8240DB001840,1840,Blanchardstown Vlge,,53.38796115129,-6.37928339930351,,,,
8240DB001853,1853,Coolmine Woods,,53.3846274925091,-6.38864041413817,,,,
8240DB001857,1857,Mountview Church,,53.3911220552931,-6.40779082065442,,,,
8240DB001861,1861,Hartstown Comm Sch,,53.3967496163341,-6.41666332184701,,,,
8240DB001862,1862,Pinebrook Vale,,53.3986159886685,-6.41507518344004,,,,
8240DB001865,1865,Ashfield Gardens,,53.4010446332512,-6.40644280565797,,,,
8240DB001866,1866,Ashfield Park,,53.3998996519127,-6.40281619191826,,,,
8240DB001871,1871,Huntstown Way,,53.3996498608775,-6.40228416362548,,,,
8240DB001872,1872,Huntstown Road,,53.4007795004664,-6.40610682069243,,,,
8240DB001875,1875,Pinebrook Vale,,53.3982666335157,-6.41516335701588,,,,
8240DB001876,1876,Hartstown Comm Sch,,53.396435994114,-6.41673511439779,,,,
8240DB001884,1884,Porters Road,,53.3855349556341,-6.39595751987258,,,,
8240DB001888,1888,Lambourn,,53.3831732872696,-6.4122514855308,,,,
8240DB001889,1889,Castlefield Court,,53.3834166164068,-6.41703786229414,,,,
8240DB001895,1895,Clonsilla Road,,53.3835260117018,-6.41715406568758,,,,
8240DB003682,3682,Glasmore Park,,53.4620240338808,-6.2312480521744,,,,
8240DB003860,3860,Hannas Avenue,,53.5070761193634,-6.18537802839704,,,,
8240DB003865,3865,Daleview Road,,53.4660910636253,-6.23763104891069,,,,
8240DB003884,3884,Pine Grove Park,,53.4646015443358,-6.23475571196158,,,,
8240DB004464,4464,Sheepmoor Grove,,53.3941714457623,-6.3992415025482,,,,
8240DB004465,4465,Hazel Court,,53.4194716115268,-6.13995581550581,,,,
8240DB004744,4744,IBM Campus,,53.4196069303986,-6.41811609604632,,,,
8220DB000206,206,Collins Avenue West,,53.3835460890329,-6.24747670792428,,,,
8220DB000233,233,Beaumont Road,,53.3858213105789,-6.23353699415902,,,,
8220DB000242,242,Coolgreena Road,,53.3856548985671,-6.23201042765,,,,
8220DB001229,1229,Kilbarron Drive,,53.394311601171,-6.22542628929815,,,,
8220DB001244,1244,Cromcastle Green,,53.392907241618,-6.22044750297321,,,,
8220DB001252,1252,Kilmore Road,,53.3936380322998,-6.21461282858834,,,,
8220DB001585,1585,Cardiffsbridge Road,,53.3887680197446,-6.31233314490446,,,,
8220DB001602,1602,Patrician College,,53.384418003166,-6.3187139572728,,,,
8220DB001607,1607,Dunsink Drive,,53.3821613835434,-6.30342464753537,,,,
8220DB001647,1647,Blackhall Place,,53.34835,-6.28218,,,,
8220DB004363,4363,Berryfield Road,,53.3817122370581,-6.30344250600007,,,,
8220DB004364,4364,Cappagh Hospital,,53.3929113883189,-6.32252918543635,,,,
8220DB004366,4366,Clune Road,,53.3912153801995,-6.29480995042036,,,,
8220DB004413,4413,Heuston Station,,53.346156,-6.292794,,,,
8220DB004414,4414,Convent Lawns,,53.3443370217347,-6.35001432213045,,,,
8220DB004473,4473,Artane Castle SC,,53.3839142520241,-6.21470406436344,,,,
8220DB004474,4474,Artane Castle SC,,53.3841372470718,-6.21519083527687,,,,
8220DB004781,4781,IDA Poppintree,,53.4017480300026,-6.28405666346634,,,,
8220DB004785,4785,CRC,,53.3702460899942,-6.20172004610409,,,,
8230DB002111,2111,Clondalkin Church,,53.3191587732595,-6.39259410078769,,,,
8230DB002114,2114,Ninth Lock Road,,53.3242145514847,-6.39560159465005,,,,
8230DB002119,2119,Saint Peter's Junior National School,,53.337048,-6.40018,,,,
8230DB002120,2120,Collinstown College,,53.3411632704414,-6.39942565437456,,,,
8230DB002121,2121,Rowlagh,,53.3438755786503,-6.3986031558769,,,,
8230DB002124,2124,Neilstown Road,,53.3469584164072,-6.39793187307251,,,,
8230DB002129,2129,Moorefield Drive,,53.3357283700735,-6.40030489835483,,,,
8230DB002130,2130,Station Road,,53.3297236912571,-6.397571863025,,,,
8230DB002345,2345,Belgard Retail Park,,53.293663,-6.369025,,,,
8230DB002346,2346,Belgard Square North,,53.2900797370838,-6.36790110381364,,,,
8230DB002360,2360,Alderwood,,53.2846948207358,-6.3796848797551,,,,
8230DB002364,2364,Belgard Retail Park,,53.293631,-6.369311,,,,
8230DB002522,2522,Firhouse Centre,,53.2814222293892,-6.34234624628978,,,,
8230DB002535,2535,Seskin View Road,,53.2810133262279,-6.35891860284657,,,,
8230DB004359,4359,Hollyville Lawn,,53.3579749523143,-6.3790994748448,,,,
8230DB004360,4360,Robin Villas,,53.3571539460712,-6.37358695042741,,,,
8230DB004435,4435,Tallaght Village,,53.2888429202736,-6.36356837702225,,,,
8230DB004552,4552,Grange Castle Park,,53.325085812664,-6.43959960800999,,,,
8230DB004599,4599,Hermitage Road,,53.3577587404062,-6.42333743295062,,,,
8230DB004601,4601,Ballyowen Park,,53.3557559200585,-6.42208934699276,,,,
8230DB007447,7447,Grange Golf Club,,53.2815889391873,-6.28112145613443,,,,
8230DB007448,7448,Grange Golf Club,,53.281736988145,-6.28141545916275,,,,
8230DB007751,7751,Esker Glebe,,53.3506982580508,-6.43867925875219,,,,
8230DB007768,7768,Larkfield,,53.3544513469234,-6.41791622056399,,,,
8230DB007769,7769,Larkfield,,53.3544393514295,-6.41836733955659,,,,
8230DB007772,7772,Liffey Avenue,,53.3537599008419,-6.41322484228442,,,,
8230DB007793,7793,Saint Lomans Road,,53.3538559794186,-6.40761795504629,,,,
8230DB007800,7800,The Paddocks Drive,,53.3476213982444,-6.46546725968765,,,,
8230DB007801,7801,The Paddocks Drive,,53.3490241137155,-6.4648160574618,,,,
8230DB007878,7878,Cappaghmore,,53.3310739923675,-6.39906772380998,,,,
8240DB000733,733,Forest View,,53.4494332874204,-6.24047392331501,,,,
8240DB000905,905,Yellow Walls Road,,53.4515617429129,-6.170369781154,,,,
8240DB001903,1903,Broadway Road,,53.3852498860256,-6.38747436943045,,,,
8240DB001904,1904,Springlawn,,53.3878416197065,-6.3830615573364,,,,
8240DB002510,2510,Rosemount Park,,53.4021884304068,-6.35558195722214,,,,
8240DB003571,3571,Selskar Court,,53.5781445633688,-6.12539934629191,,,,
8240DB003576,3576,Copperbush,,53.4293151829963,-6.17794729354603,,,,
8240DB003577,3577,Myra Manor,,53.4321596017825,-6.17704298232157,,,,
8240DB003579,3579,Auburn House,,53.4406701685969,-6.17637753818027,,,,
8240DB003585,3585,Malahide Station,,53.4506330921231,-6.15499132484153,,,,
8240DB003588,3588,Sea Park,,53.4499088963379,-6.14074888133164,,,,
8240DB003692,3692,Carlton Court,,53.4534471045824,-6.22381964042777,,,,
8240DB003696,3696,N1 Business Park,,53.4431819085801,-6.22799644733448,,,,
8240DB003698,3698,Kettles Lane,,53.4368181219837,-6.22737321115235,,,,
8240DB003701,3701,Ballintrane Wood,,53.4526169020687,-6.22722718341346,,,,
8240DB003705,3705,Brookdale Drive,,53.4528130716947,-6.24415881950421,,,,
8240DB003706,3706,Forest Crescent,,53.4512966547919,-6.24494411897021,,,,
8240DB003710,3710,River Valley Drive,,53.452056008149,-6.2312256888403,,,,
8240DB003711,3711,Swords Castle,,53.4611903224139,-6.21869205328014,,,,
8240DB003714,3714,Broad Meadow Bridge,,53.472219371266,-6.2109238239115,,,,
8240DB003724,3724,Rahillion,,53.4929932372436,-6.12835906818359,,,,
8240DB003732,3732,Marsh Lane,,53.5001003817139,-6.11847356672597,,,,
8240DB003739,3739,St Ita's Hospital,,53.489036,-6.114057,,,,
8240DB003764,3764,Station Road,,53.5253252473338,-6.16441622194941,,,,
8240DB003767,3767,Rosewood,,53.5220353365397,-6.14866169054312,,,,
8240DB003770,3770,Rush & Lusk Stn,,53.5213969241793,-6.1445871891099,,,,
8240DB003771,3771,Whitestown Road,,53.5186926354517,-6.13138867293854,,,,
8240DB003773,3773,Carthy's Lane,,53.517906859001,-6.1236867280588,,,,
8240DB003775,3775,Millbank Court,,53.5215141277054,-6.10621283911709,,,,
8240DB003788,3788,Mine Road,,53.5503077920477,-6.10198409377451,,,,
8220DB000218,218,Shantalla Road,,53.3859238989699,-6.2337883241109,,,,
8220DB000220,220,Swords Road,,53.3879405396554,-6.24498084117383,,,,
8220DB000243,243,Lady of Mercy,,53.3857800608389,-6.22953967454698,,,,
8220DB000244,244,Skelly's Lane,,53.3849982136853,-6.22349851566417,,,,
8220DB000255,255,Coolgreena Road,,53.3855938804189,-6.23153187241743,,,,
8220DB001235,1235,Kilbarron Road,,53.3947366846993,-6.22560408418954,,,,
8220DB001237,1237,Cromcastle Avenue,,53.3926786799977,-6.21898347230117,,,,
8220DB001253,1253,Tranquility Grove,,53.3938639430705,-6.21469359247894,,,,
8220DB001280,1280,McKelvey Avenue,,53.4001962883489,-6.30314329259755,,,,
8220DB001587,1587,Wellmount Drive,,53.383466430314,-6.3117912065007,,,,
8220DB001593,1593,Tolka Valley Park,,53.3789147733946,-6.29445974940212,,,,
8220DB001600,1600,Deanstown Avenue,,53.3835970178865,-6.3127631835118,,,,
8220DB001605,1605,Albert College Park,,53.388252972158,-6.2607995902938,,,,
8220DB001610,1610,Tolka Valley Park,,53.3788077072716,-6.2964030706551,,,,
8220DB001649,1649,Manor Street,,53.35256,-6.28428,,,,
8220DB001652,1652,Clontarf Castle,,53.3633555860125,-6.20612742264058,,,,
8220DB001655,1655,Blackhorse Avenue,,53.356732171847,-6.29696827411514,,,,
8220DB001657,1657,Dunard Walk,,53.3583921080637,-6.303076999237,,,,
8220DB002413,2413,Whitehall Road,,53.3128657948858,-6.30548384645275,,,,
8220DB002414,2414,Westbrook,,53.3140744704604,-6.31085404934157,,,,
8220DB002415,2415,Royston Village,,53.3150567500034,-6.31357689259081,,,,
8220DB002436,2436,Lorcan O'Toole Park,,53.3137059070171,-6.30894752705153,,,,
8220DB004365,4365,Poppintree Park,,53.4021446934654,-6.28351431414381,,,,
8220DB004367,4367,Jamestown Road,,53.3987327890033,-6.28939631666676,,,,
8220DB004368,4368,Poppintree Park,,53.3988240611935,-6.28886631109229,,,,
8220DB004376,4376,Clancy Avenue,,53.3924080528212,-6.29273239173514,,,,
8220DB004390,4390,Railway Bridge,,53.3718904372544,-6.20766241216395,,,,
8220DB004539,4539,Glenties Park,,53.3816733488123,-6.31083995275691,,,,
8220DB004597,4597,Beaumont Hospital,,53.3902504630229,-6.22431722876635,,,,
8220DB004784,4784,CRC,,53.3700841075225,-6.20111070247817,,,,
8220DB004788,4788,Oakwood Road,,53.3969347694145,-6.29250606231359,,,,
8220DB004790,4790,Pinebrook Drive,,53.3813898765373,-6.2117881689498,,,,
8230DB002110,2110,Newlands Cross,,53.3146473577976,-6.39196818042724,,,,
8230DB002117,2117,Station Road,,53.32955,-6.397564,,,,
8230DB002127,2127,Collinstown College,,53.3415714730711,-6.39903491521609,,,,
8230DB002224,2224,Lucan Village,,53.3572779284331,-6.44975138491199,,,,
8230DB002234,2234,Lucan Retail Park,,53.3593365474214,-6.42439097365572,,,,
8230DB002351,2351,Blessington Road,,53.2832055705928,-6.38452544862571,,,,
8230DB002352,2352,Jobstown House,,53.2775372313753,-6.39741048190079,,,,
8230DB002358,2358,Killinarden,,53.2807038231884,-6.38961370639414,,,,
8230DB002515,2515,Cherryfield Way,,53.2913443620348,-6.31281606279928,,,,
8230DB002516,2516,Cremore,,53.2902232678844,-6.3155302727846,,,,
8230DB002518,2518,Knocklyon Avenue,,53.288532449668,-6.32438653552512,,,,
8230DB002523,2523,Firhouse College,,53.2771069428584,-6.34875137969137,,,,
8230DB002533,2533,Parkwood Lawn,,53.2775083920898,-6.35764330397158,,,,
8230DB002534,2534,Old Bawn Terrace,,53.2789286838467,-6.35830865659527,,,,
8230DB004327,4327,Liffey Valley Golf,,53.3510620657875,-6.43832047324454,,,,
8230DB004342,4342,The Square,,53.2861056440216,-6.37306211391223,,,,
8230DB004436,4436,IT Tallaght,,53.289168,-6.366976,,,,
8230DB004441,4441,Brookfield Road,,53.288527174986,-6.40460385360746,,,,
8230DB004555,4555,Grange Castle Park,,53.3250293591821,-6.43940651070571,,,,
8230DB007446,7446,Templeroan Estate,,53.2811782038811,-6.30706781981242,,,,
8230DB007459,7459,Logic Drive,,53.2908418206822,-6.42728784873352,,,,
8230DB007775,7775,Lucan Main Street,,53.3559854577094,-6.4498884340689,,,,
8230DB007792,7792,Saint Lomans Road,,53.3540035212229,-6.40789787952109,,,,
8230DB007808,7808,Willsbrook Park,,53.3529675481706,-6.42737492536051,,,,
8230DB007884,7884,Liffey Valley SC,,53.354078,-6.392001,,,,
8240DB000661,661,Westend Office Park,,53.3924222501891,-6.38348935657183,,,,
8240DB000685,685,Sutton Park School,,53.3754098474852,-6.09484616348513,,,,
8240DB000788,788,The Oaks,,53.4458543541186,-6.24096812596944,,,,
8240DB001902,1902,Orchard Court,,53.3835372603716,-6.39243978550488,,,,
8240DB001912,1912,Clonsilla Station,,53.3836698113965,-6.42054613961035,,,,
8240DB002289,2289,Blackcourt Road,,53.4011229960423,-6.37491814543362,,,,
8240DB002960,2960,Retail Park,,53.3943233176127,-6.38848464154604,,,,
8240DB003088,3088,River Valley Heights,,53.4527270791061,-6.23710036947058,,,,
8240DB003089,3089,Cherry Avenue,,53.4489647580676,-6.23978564868842,,,,
8240DB003090,3090,Forest View,,53.4495837591086,-6.24153671095062,,,,
8240DB003340,3340,Littlepace,,53.4086679506815,-6.42894586872248,,,,
8240DB003566,3566,Selskar Court,,53.5780675047653,-6.12507050399762,,,,
8240DB003567,3567,Skerries Station,,53.5762792384472,-6.1199395460267,,,,
8240DB003569,3569,Selskar Road,,53.5765274956637,-6.12143871277598,,,,
8240DB003573,3573,Chapel Road,,53.4260765801719,-6.17658099132024,,,,
8240DB003580,3580,Malahide Demense,,53.4432561964644,-6.1738580644406,,,,
8240DB003689,3689,Fingal Co Co,,53.4589359455178,-6.22000628107609,,,,
8240DB003690,3690,Swords Main Street,,53.4569564215003,-6.22106793165695,,,,
8240DB003702,3702,River Valley Drive,,53.4519723495741,-6.23225306340109,,,,
8240DB003709,3709,River Valley Heights,,53.4526315736854,-6.23611052796778,,,,
8240DB003713,3713,Balheary Park,,53.4686889702079,-6.21345232771727,,,,
8240DB003715,3715,Lissenhall Green,,53.4800028356491,-6.20372561260335,,,,
8220DB000211,211,Collins Avenue,,53.3842808561631,-6.24916033059417,,,,
8220DB000212,212,Whitehall,,53.3831956351277,-6.24625839753322,,,,
8220DB000245,245,Whitethorn Crescent,,53.38447224442,-6.21956660604612,,,,
8220DB000251,251,Elmount Crescent,,53.3848322787448,-6.22321978633312,,,,
8220DB000316,316,Bachelors Walk,,53.346893,-6.262228,,,,
8220DB000746,746,Kildare Street,,53.3401536166372,-6.25559428153351,,,,
8220DB001251,1251,St Luke's Church,,53.3934573359087,-6.22237931759761,,,,
8220DB001286,1286,Harrington Street,,53.3324996494988,-6.26572653484079,,,,
8220DB001592,1592,Tolka Valley Road,,53.379720918945,-6.28924160522583,,,,
8220DB001597,1597,Valeview Gardens,,53.3804552155941,-6.30923466596562,,,,
8220DB001599,1599,Cardiffsbridge Road,,53.3808997507106,-6.31079541615784,,,,
8220DB001601,1601,Deanstown Drive,,53.383894313473,-6.31472076129326,,,,
8220DB001603,1603,Ratoath Road,,53.3835188568842,-6.31868925643626,,,,
8220DB001604,1604,Rathvilly Road,,53.3837454770658,-6.31627504223633,,,,
8220DB001609,1609,Cloonlara,,53.3803842380755,-6.29728713957775,,,,
8220DB001644,1644,DCU Collins Avenue,,53.3868700413836,-6.25657120617442,,,,
8220DB001646,1646,DCU Collins Avenue,,53.3871546494696,-6.25698053714182,,,,
8220DB001650,1650,Castle Avenue,,53.3611743870623,-6.20931427534311,,,,
8220DB002437,2437,Brookfield,,53.3126888171566,-6.30251926023377,,,,
8220DB004369,4369,Oakwood Road,,53.3972652002409,-6.29235749139331,,,,
8220DB004375,4375,Jamestown Road,,53.3916731625598,-6.29665609729648,,,,
8220DB004377,4377,Sycamore Road,,53.3944892873129,-6.28994244366248,,,,
8220DB004378,4378,Ballygall Road,,53.3788365431791,-6.27650039218678,,,,
8220DB004406,4406,Carriglea Industrial Estate,,53.3280888160746,-6.33851063578032,,,,
8220DB004458,4458,Military Cemetery,,53.3604500535096,-6.30811869453342,,,,
8220DB004479,4479,McKee Road,,53.3913045299499,-6.29412977812108,,,,
8220DB004583,4583,Finglas West Church,,53.3885290912004,-6.31259818763534,,,,
8220DB004592,4592,Finglas Village,,53.3896860703065,-6.29849455937193,,,,
8220DB004791,4791,Collins Avenue East,,53.3716117545673,-6.20765908533895,,,,
8230DB002112,2112,"Main Street, Clondalkin",,53.32067,-6.393378,,,,
8230DB002116,2116,Michael Collins Pk,,53.3282504281936,-6.39629089505765,,,,
8230DB002125,2125,Harelawn Green,,53.3455867762438,-6.39819357526104,,,,
8230DB002126,2126,Rowlagh,,53.343935440152,-6.39837562988944,,,,
8230DB002223,2223,Main St Lucan,,53.3585272442122,-6.44906001031818,,,,
8230DB002226,2226,Collins Bridge,,53.370272241031,-6.45652303443809,,,,
8230DB002229,2229,Main St Lucan,,53.3586057545459,-6.44887687249324,,,,
8230DB002236,2236,Hermitage Bridge,,53.3588694641819,-6.41085651344615,,,,
8230DB002239,2239,Liffey Valley SC,,53.356168470617,-6.39172740046693,,,,
8230DB002359,2359,Maplewood Avenue,,53.2835900308709,-6.3843759662733,,,,
8230DB002363,2363,TU Dublin Tallaght,,53.289806,-6.368257,,,,
8230DB002520,2520,Ballycullen Road,,53.2860777851868,-6.3326568733498,,,,
8230DB002521,2521,Woodlawn Park,,53.2847193344898,-6.33578439685523,,,,
8230DB002524,2524,Ballycullen Drive,,53.2783737436058,-6.34676806631816,,,,
8230DB003949,3949,Leixlip Road,,53.3555169185499,-6.46021107416006,,,,
8230DB004357,4357,Hollyville Lawn,,53.3579414399752,-6.38060312698795,,,,
8230DB004409,4409,Clondalkin Village,,53.3223471943314,-6.39308971803545,,,,
8230DB004438,4438,Citywest Campus,,53.2933146001978,-6.42260669701534,,,,
8230DB004545,4545,Grange Castle,,53.3192830972298,-6.43437766995607,,,,
8230DB004554,4554,Pfizer,,53.3269276514059,-6.43954740447631,,,,
8230DB004576,4576,Grange Castle,,53.3193629651,-6.43429969561641,,,,
8230DB007460,7460,Citywest SC,,53.2826316202697,-6.42153047322322,,,,
8230DB007563,7563,Weston Hockey Club,,53.3455700830502,-6.45139276217704,,,,
8230DB007749,7749,Dodsborough Road,,53.3505986745675,-6.46424875975904,,,,
8230DB007752,7752,Esker Park,,53.3524015382188,-6.43080570030289,,,,
8230DB007754,7754,Clayton Hotel,,53.3537969976216,-6.40119061274351,,,,
8230DB007773,7773,Liffey Avenue,,53.353686635407,-6.41312240830811,,,,
8230DB007809,7809,Willsbrook Park,,53.3527419705159,-6.42730812072592,,,,
8230DB007810,7810,Woodview Heights,,53.3517430714695,-6.46308100994575,,,,
8230DB007879,7879,Cappaghmore,,53.3311954085243,-6.3994085071375,,,,
8240DB000679,679,Santa Sabina,,53.386460234707,-6.10298249007752,,,,
8240DB002290,2290,Waterville Terrace,,53.3918736208018,-6.37221829316682,,,,
8240DB002294,2294,Mill Road,,53.3900864585234,-6.37034695742265,,,,
8240DB002338,2338,Waterville Row,,53.3930846748805,-6.37799108182301,,,,
8240DB002468,2468,Blanchardstown Rd N,,53.4043603607201,-6.37306513319532,,,,
8240DB003572,3572,Forest Road,,53.4543273513164,-6.22438522745494,,,,
8240DB003578,3578,Streamstown Lane,,53.4378137935158,-6.17708691844226,,,,
8240DB003584,3584,Cricket Club,,53.4498545363468,-6.15987334791906,,,,
8240DB003586,3586,Malahide,,53.451006,-6.150392,,,,
8240DB003587,3587,The Old Golf Links,,53.4511271472513,-6.14510743008024,,,,
8240DB003589,3589,Biscayne,,53.4460837138251,-6.13234940443333,,,,
8240DB003694,3694,Pinnock Hill,,53.4489963472951,-6.22673056334105,,,,
8240DB003699,3699,Stockhole Lane,,53.4350550460657,-6.22788308964456,,,,
8240DB003708,3708,Hilltown Road,,53.4532639461059,-6.2387645994082,,,,
8240DB003712,3712,North Street,,53.4636490317192,-6.21721850587523,,,,
8240DB003718,3718,Newbridge Demesne,,53.4804571614811,-6.16208991025608,,,,
8240DB003722,3722,Leisure Centre,,53.4897930493483,-6.14215429245557,,,,
8240DB003729,3729,Burrow Road,,53.4974367712321,-6.1148532468777,,,,
8240DB003734,3734,Burrow Road,,53.4971736840942,-6.11469911025833,,,,
8220DB000112,112,Civic Centre,,53.3961544015462,-6.2639510403018,,,,
8220DB000114,114,Ballymun Road,,53.3913333220544,-6.26371122925237,,,,
8220DB000116,116,Griffith Lawns,,53.3776934606436,-6.25966673989336,,,,
8220DB000127,127,Nursing Home,,53.3991075304805,-6.26368042823971,,,,
8220DB000608,608,Killester,,53.3710783844633,-6.20446531476562,,,,
8220DB00089,89,Lambay Road,,53.377939,-6.261644,,,,
8220DB000956,956,Naomh Barróg GAA,,53.3898318021104,-6.15290114572838,,,,
8220DB000958,958,St. Donagh's,,53.3909165331479,-6.16378528809522,,,,
8220DB000960,960,Tonlegee Road,,53.3911576199014,-6.17187930562012,,,,
8220DB000963,963,Rathvale,,53.3905102717854,-6.18659695896856,,,,
8220DB000964,964,St John's Church,,53.3900734007662,-6.1921636504984,,,,
8220DB000972,972,Aulden Grange,,53.3969960428841,-6.23492379932213,,,,
8220DB000979,979,St Canice's GNS,,53.3899538085893,-6.29710063600173,,,,
8220DB000997,997,Northside SC,,53.3941665688856,-6.21149309335645,,,,
8220DB000998,998,Armstrong Walk,,53.3935747678449,-6.20978868590317,,,,
8220DB001005,1005,Limewood,,53.3909514065877,-6.1819170834231,,,,
8220DB001488,1488,Turlogh Parade,,53.3710888554238,-6.23468777023624,,,,
8220DB001510,1510,Ballyboggan Road,,53.3769069295213,-6.28731023718711,,,,
8220DB001514,1514,Drogheda Mall,,53.3894651562214,-6.30002191446058,,,,
8220DB001530,1530,Finglas Road,,53.3869194998643,-6.29672562964293,,,,
8220DB001558,1558,McKelvey Avenue,,53.3998175109931,-6.30305309451757,,,,
8220DB001573,1573,Wellmount Drive,,53.3840241647317,-6.31246066242432,,,,
8220DB001575,1575,Coláiste Íde,,53.3870661425713,-6.31274625802596,,,,
8220DB002185,2185,Slievebloom Road,,53.3242587027673,-6.32749048930553,,,,
8220DB002200,2200,Kylemore Road,,53.3502827503671,-6.35295415067497,,,,
8220DB002317,2317,St Mary's Road,,53.3234185687127,-6.31887655923768,,,,
8220DB002318,2318,Somerville Avenue,,53.3219800054738,-6.31884304552821,,,,
8220DB002957,2957,McKee Avenue,,53.396234,-6.302594,,,,
8220DB007607,7607,Vernon Avenue,,53.3694140827685,-6.19542820325141,,,,
8220GD007841,7841,Brookville Crescent,,53.3896826331897,-6.19841990306513,,,,
8230B105121,105121,Saggart Cross,,53.291357773347,-6.43919414042118,,,,
8230DB000946,946,Woodbrook Park,,53.2932464974234,-6.31004087391836,,,,
8230DB002619,2619,Belgard Road,,53.30267514094,-6.37669349477984,,,,
8230DB002620,2620,Belgard,,53.2987215110506,-6.37084224462122,,,,
8230DB002623,2623,Whitebrook,,53.285530060493,-6.39492160675738,,,,
8230DB002624,2624,Rossfield,,53.2887645780293,-6.40018516550432,,,,
8230DB002628,2628,Brookfield Road,,53.2888711128509,-6.40411105407268,,,,
8230DB002929,2929,Edmondstown Golf,,53.2718329035208,-6.29902564370446,,,,
8230DB002930,2930,Kilmashogue Cemetery,,53.2679047342744,-6.29837200154933,,,,
8230DB002935,2935,The Merry Ploughboy,,53.2641307659466,-6.29718765857974,,,,
8230DB002940,2940,Moyville,,53.2803586859676,-6.29748730884422,,,,
8230DB002949,2949,Moyville Lawns,,53.2816733044618,-6.29325082629437,,,,
8230DB002954,2954,Whitechurch Green,,53.2780415018988,-6.28631746241022,,,,
8230DB004714,4714,Castle Drive,,53.2887472357322,-6.42385492509485,,,,
8230DB004715,4715,Liffey Valley West,,53.3526793490941,-6.39559922812308,,,,
8230DB004869,4869,St Colmcille's Way,,53.2791145416731,-6.31875650653986,,,,
8230DB004885,4885,Wood Dale View,,53.2762189048752,-6.33659451965014,,,,
8230DB004887,4887,St Colmcille's Way,,53.2794729155331,-6.31803760867395,,,,
8230DB005022,5022,Citywest Campus,,53.2933804601608,-6.42282928585496,,,,
8230DB005058,5058,Ballyowen Road,,53.3508988211271,-6.42249407625999,,,,
8230DB005119,5119,Brownsbarn Orchard,,53.2979015971857,-6.42012725257628,,,,
8230DB005120,5120,Kingswood North,,53.3007578572111,-6.41862647819475,,,,
8230DB005132,5132,Owendore Avenue,,53.297946220461,-6.28666082155279,,,,
8230DB007960,7960,Seskin View Road,,53.2796295904385,-6.35829678695901,,,,
8230DB007974,7974,Ballyboden St Endas,,53.282617240172,-6.30207674882703,,,,
8230DB008065,8065,Kingswood Road,,53.2943335248466,-6.41607355417808,,,,
8230DB008077,8077,Kingswood Road,,53.294030493979,-6.41558972425176,,,,
8230DB008087,8087,Greenogue Rdbt,,53.2919541015583,-6.47205343453301,,,,
8240DB000940,940,Moyne Cottages,,53.4065549106136,-6.13472849629393,,,,
8240DB000942,942,St Rita's House,,53.415037980596,-6.13864489000421,,,,
8240DB000947,947,Moyne Bridge,,53.4091864740076,-6.13632817520081,,,,
8240DB000948,948,Moyne Cottages,,53.4061434361083,-6.13428021885759,,,,
8240DB000973,973,Coolock Lane,,53.3982256279202,-6.24272290258513,,,,
8240DB000992,992,Coolock Lane,,53.3981583599684,-6.24120680842813,,,,
8240DB001039,1039,Seamount View,,53.4535389279934,-6.20530963202107,,,,
8240DB001040,1040,Ashley Drive,,53.4540357100199,-6.21206482786963,,,,
8240DB001050,1050,Seamount View,,53.4536692617403,-6.20620761437372,,,,
8240DB001210,1210,Posey Row,,53.4190328539571,-6.17736389860882,,,,
8240DB001211,1211,St Nicholas NS,,53.4212952648676,-6.17660506602538,,,,
8240DB001213,1213,Posey Row,,53.4175012466981,-6.17771527064763,,,,
8240DB001214,1214,St Doolagh's Park,,53.4153132434916,-6.1780495456956,,,,
8240DB001580,1580,Cappagh Cross,,53.3979032077195,-6.33433315208021,,,,
8240DB003635,3635,Cricket Club,,53.4496399494944,-6.1605300620945,,,,
8240DB003636,3636,St Sylvesters School,,53.4494224481629,-6.16216557345171,,,,
8240DB003669,3669,Maldron Hotel,,53.4284655392369,-6.2350797893605,,,,
8240DB003671,3671,Airport Roundabout,,53.4293994597701,-6.23016510811252,,,,
8240DB003674,3674,Equestrian Centre,,53.4410501588912,-6.22788947665305,,,,
8240DB004925,4925,Ballintrane Wood,,53.452160924721,-6.22860134262987,,,,
8240DB004989,4989,IBM Campus,,53.4191096563696,-6.41789383144671,,,,
8240DB005055,5055,Hazelwood,,53.4003862026137,-6.25952270796651,,,,
8220DB000087,87,Clare Road,,53.3767517255719,-6.2548802899246,,,,
8220DB000088,88,Walnut Rise,,53.3772872552991,-6.2576992286456,,,,
8220DB000530,530,Killester,,53.3712245323444,-6.20402332968282,,,,
8220DB001063,1063,Dodder Walk,,53.3085720815395,-6.25886311823078,,,,
8220DB001082,1082,Terenure Road East,,53.3116759487029,-6.27577063203852,,,,
8220DB001118,1118,Hazelbrook Road,,53.3113669927789,-6.29491782827779,,,,
8220DB001165,1165,Brighton Road,,53.3117124365704,-6.27642950385614,,,,
8220DB001196,1196,Elm Mount Road,,53.3777875069851,-6.2149152956023,,,,
8220DB001221,1221,Mayfield Park,,53.3768165000717,-6.21609825408438,,,,
8220DB001713,1713,Manor Street,,53.351907820017,-6.28332547345323,,,,
8220DB001743,1743,The Court,,53.3611356864305,-6.21392866651198,,,,
8220DB001765,1765,Blackheath Grove,,53.3665514240798,-6.20228141366141,,,,
8220DB001766,1766,Seafield Road West,,53.3651160524238,-6.20485131647104,,,,
8220DB002696,2696,Ballyfermot,,53.3426876161001,-6.35880375521618,,,,
8220DB002701,2701,Ballyfermot Crescent,,53.3401698049064,-6.34829801891189,,,,
8220DB005009,5009,Le Fanu Road,,53.3462145335587,-6.35189438313143,,,,
8220DB005061,5061,Kilbarron Drive,,53.3956965209034,-6.22487242585156,,,,
8220DB006078,6078,Cromcastle Road,,53.3972417816478,-6.22422162082618,,,,
8220DB007913,7913,Hannaville Park,,53.3097600468601,-6.28564747857349,,,,
8220DB007939,7939,Heuston Station,,53.346636,-6.29556,,,,
8220DB007941,7941,Kylemore Luas,,53.3263803007096,-6.34233022618322,,,,
8220DB007942,7942,Crumlin Village,,53.3208260162086,-6.31668181017187,,,,
8220DB007943,7943,Highfield Road,,53.3127394599831,-6.27038486298018,,,,
8220DB007947,7947,Shangarry,,53.30928,-6.2498,,,,
8220DB008296,8296,Nephin Road,,53.36263,-6.31139,,,,
8220DB008301,8301,Finglas Road,,53.375628,-6.288212,,,,
8220DB008307,8307,St Mobhi Road,,53.378704,-6.266153,,,,
8220DB008314,8314,Croaghpatrick Road,,53.36447,-6.30892,,,,
8220DB008315,8315,Park Crescent,,53.3625,-6.31075,,,,
8220DB012206,12206,Saint Finian's Way,,53.29985,-6.50522,,,,
8220DB012207,12207,Saint Finian's Way,,53.2998,-6.50477,,,,
8230DB002158,2158,Oakfield,,53.325404,-6.395137,,,,
8230DB002159,2159,Clondalkin Garda Stn,,53.3232207170865,-6.39388252941308,,,,
8230DB002176,2176,Newlands Cross,,53.3137055565444,-6.38811645092478,,,,
8230DB002202,2202,Lucan Road,,53.3543817717992,-6.37330192311852,,,,
8230DB002967,2967,Eden Avenue,,53.2813395031682,-6.27691727465228,,,,
8230DB002983,2983,Pearse Brothers Park,,53.2816185848266,-6.28755407095945,,,,
8230DB003368,3368,Finnstown Abbey,,53.3445579030412,-6.44958211522962,,,,
8230DB003398,3398,Alymer Road,,53.2980705956897,-6.49361881963107,,,,
8230DB003400,3400,Newcastle Manor,,53.2953807216388,-6.49057814347321,,,,
8230DB003401,3401,Aylmer Road,,53.2977580535459,-6.49377984327217,,,,
8230DB003426,3426,Citywest Hotel,,53.283774,-6.440715,,,,
8230DB003432,3432,Bianconi Avenue,,53.291366143447,-6.42819860784696,,,,
8230DB003436,3436,Spring Bank,,53.2833133145037,-6.45297006322532,,,,
8230DB003449,3449,Fitzmaurice Road,,53.2835347002061,-6.45896107428159,,,,
8230DB003455,3455,Saggart,,53.2803490443772,-6.44481410819262,,,,
8230DB003457,3457,Garter Lane,,53.2900246105636,-6.43828275201961,,,,
8230DB003886,3886,Primrose Lane,,53.3556904165011,-6.45416563398202,,,,
8230DB007016,7016,Kishoge Road,,53.3307533232238,-6.43176557698475,,,,
8230DB007165,7165,Robin Villas,,53.3572174628075,-6.3742906389522,,,,
8230DB007168,7168,Newcastle Road,,53.3452148285963,-6.45172104034758,,,,
8230DB007193,7193,Tandy's Lane,,53.353999,-6.458914,,,,
8230DB007444,7444,The Glen,,53.2823865090999,-6.29913139992251,,,,
8240DB000124,124,Virgin Mary Church,,53.3948920736271,-6.26058900792251,,,,
8240DB000225,225,Shanowen Avenue,,53.3906666786383,-6.2574384514975,,,,
8240DB000226,226,Shanard Avenue,,53.3911405641955,-6.26220046436854,,,,
8240DB001831,1831,Coolmine Cottages,,53.400701508927,-6.39358239394384,,,,
8240DB001835,1835,Corduff,,53.400012349284,-6.3752010904769,,,,
8240DB001836,1836,Aquatic Centre,,53.3980119951729,-6.37153286033095,,,,
8240DB001844,1844,Coolmine Fire Stn,,53.3854112079377,-6.3961125067293,,,,
8240DB001850,1850,Whitestown Park,,53.3977476216498,-6.3991674214319,,,,
8240DB001854,1854,Orchard Court,,53.3835844814959,-6.39194192378231,,,,
8240DB001858,1858,Hartstown Road,,53.3908816204679,-6.41065651029648,,,,
8240DB001859,1859,Willow Wood,,53.391035783778,-6.41549216162459,,,,
8240DB001881,1881,Fortlawn Drive,,53.3905239771028,-6.40271620305255,,,,
8240DB001882,1882,Millennium Park,,53.3927725776906,-6.39881284842175,,,,
8240DB001896,1896,Lambourn,,53.3833555648473,-6.41379306901694,,,,
8240DB003675,3675,N1 Business Park,,53.4433397443447,-6.2283361259569,,,,
8240DB003676,3676,Airside,,53.4467824882382,-6.22835845052754,,,,
8240DB003677,3677,Colaiste Choilm,,53.4523489406837,-6.22491949576321,,,,
8240DB003861,3861,Newhaggard,,53.5048319803791,-6.18734334650232,,,,
8240DB004324,4324,Littlepace Gallops,,53.4040177930595,-6.42663563137068,,,,
8240DB004325,4325,Littlepace,,53.4085874952716,-6.42897891690184,,,,
8240DB004330,4330,Swords Pavilions SC,,53.4547858681123,-6.21835781834232,,,,
8240DB004331,4331,Seabury Road,,53.455399921214,-6.17920983948023,,,,
8240DB004339,4339,Estuary Road,,53.4526871929935,-6.18345171238116,,,,
8240DB004381,4381,Sutton Station,,53.3919,-6.11624,,,,
8240DB004686,4686,Shangan Road,,53.3944262874494,-6.25884868486984,,,,
8240DB004687,4687,Virgin Mary Church,,53.3947744224759,-6.26053365812918,,,,
8240DB004743,4743,Damastown Drive,,53.4116474009278,-6.42314993911756,,,,
8220DB000113,113,Trinity Comp School,,53.3922679629262,-6.26370325464247,,,,
8220DB000117,117,Walnut Rise,,53.3773659067251,-6.25754570845526,,,,
8220DB000136,136,McKee Road,,53.3943802013894,-6.28985659650009,,,,
8220DB000155,155,Old Finglas Road,,53.3778742492869,-6.27957552717572,,,,
8220DB000176,176,Old Finglas Road,,53.3780320419735,-6.27929860607809,,,,
8220DB000180,180,Cremore Crescent,,53.3784395640865,-6.2763961751655,,,,
8220DB000662,662,Clanmoyle Road,,53.3738704165791,-6.21262927512666,,,,
8220DB000667,667,Brian Road,,53.3679816454659,-6.22698684651141,,,,
8220DB000846,846,Fitzwilliam Place,,53.3334537329999,-6.25411090847857,,,,
8220DB000962,962,Limewood,,53.3907949286211,-6.18285597422987,,,,
8220DB000980,980,Finglas Sports Centre,,53.389804569147,-6.30303046268457,,,,
8220DB000984,984,Finglas Garda Station,,53.3899113880259,-6.30675494955138,,,,
8220DB001001,1001,Brookville Crescent,,53.3900811211552,-6.19921499123031,,,,
8220DB001004,1004,Rathvale,,53.3906381577796,-6.18614044923749,,,,
8220DB001487,1487,Marino Institute,,53.3718192548925,-6.23667144996373,,,,
8220DB001489,1489,Marino Church,,53.3701586652324,-6.23196100760236,,,,
8220DB001491,1491,Griffith Avenue,,53.3684677618855,-6.22764290979838,,,,
8220DB001513,1513,Saint Martin's,,53.386767433941,-6.29677680332904,,,,
8220DB001531,1531,Clearwater SC,,53.3837436640274,-6.29336474093086,,,,
8220DB001577,1577,Abbottstown Road,,53.3898858080548,-6.31574701686645,,,,
8220DB002243,2243,Glenaulin,,53.3519743826815,-6.35569799515708,,,,
8220DB002319,2319,Crumlin Garda Station,,53.3195647461053,-6.3152003885886,,,,
8220DB002958,2958,McKee Avenue Estate,,53.394406,-6.301088,,,,
8220DB007471,7471,Tolka Valley Green,,53.3792569087792,-6.2932435554505,,,,
8220DB007571,7571,DCU Helix,,53.3867756476292,-6.25872495848869,,,,
8220GD007837,7837,Howth Junction,,53.3901212520171,-6.15592581329108,,,,
8220GD8341,8341,Broombridge Station,,53.372116,-6.299883,,,,
8230B1056701,105671,Saggart Cross,,53.2920235379583,-6.4364997736529,,,,
8230B1339501,133951,Holy Family NS,,53.281284,-6.477533,,,,
8230DB002604,2604,Village Green,,53.2868149331786,-6.36184601942402,,,,
8230DB002618,2618,Belgard,,53.2987546058886,-6.37129107581067,,,,
8230DB002622,2622,Tallaght LC,,53.2838090574507,-6.39260147090932,,,,
8230DB002626,2626,Brookview Road,,53.2859212872862,-6.40734067323308,,,,
8230DB002631,2631,Raheen Drive,,53.2821961657621,-6.38897270039792,,,,
8230DB002675,2675,Harelawn,,53.34778895067,-6.39552753886545,,,,
8230DB002762,2762,Tallaght Fire Station,,53.308926,-6.386943,,,,
8230DB002763,2763,Newlands Golf Club,,53.3088093657372,-6.38629004350369,,,,
8230DB002934,2934,Rockbrook,,53.2620973839478,-6.29767319140549,,,,
8230DB004713,4713,Bianconi Avenue,,53.2912892220378,-6.4271364109145,,,,
8230DB004799,4799,Ballyfermot Road,,53.3451937376096,-6.37907372188316,,,,
8230DB004870,4870,Woodstown,,53.276667391697,-6.33009910271141,,,,
8230DB004871,4871,Wood Dale View,,53.2761106877672,-6.33656873168673,,,,
8230DB004882,4882,Old Court Road,,53.2747920313822,-6.35034008190742,,,,
8230DB004883,4883,Old Court Farm,,53.2751389286643,-6.34683293352434,,,,
8230DB004932,4932,Magna Drive,,53.2788609880708,-6.42049974981812,,,,
8230DB004933,4933,Belfry,,53.2776403003762,-6.41927014304667,,,,
8230DB004960,4960,Citywest Road,,53.2850505921398,-6.42162128652658,,,,
8230DB005056,5056,Hermitage Clinic,,53.3575214900454,-6.40279392760984,,,,
8230DB005129,5129,Butterfield Avenue,,53.2977087167285,-6.28577015809693,,,,
8230DB005138,5138,Esker Lodge,,53.3516756949076,-6.43439245578703,,,,
8230DB007961,7961,Firhouse Road,,53.2805076899105,-6.34509604512889,,,,
8230DB007966,7966,Rathfarnham SC,,53.2954172767558,-6.29835862052667,,,,
8230DB008029,8029,Liffey Valley SC,,53.3544288519228,-6.39269425482944,,,,
8230DB008030,8030,The Square,,53.285613,-6.372555,,,,
8230DB008031,8031,The Square,,53.285748,-6.372595,,,,
8230DB008059,8059,Liffey Valley SC,,53.3542722914604,-6.39241471896282,,,,
8230DB008062,8062,Liffey Valley SC,,53.3545380681384,-6.39279530305583,,,,
8230DB008067,8067,Kingswood BP,,53.3068967437754,-6.42474704991945,,,,
8230DB008076,8076,Green Isle Road,,53.3041560591542,-6.42139683266572,,,,
8230DB008088,8088,Main Street,,53.2996285576128,-6.49956521939384,,,,
8230GD10105,10105,Scholarstown Park,,53.2792508791915,-6.3099633124063,,,,
8240DB000913,913,Baldoyle,,53.3968546328425,-6.12656607819506,,,,
8240DB000928,928,Baldoyle,,53.3978017565935,-6.12678012056708,,,,
8240DB000935,935,Station Road,,53.3932694394471,-6.12034794885854,,,,
8240DB000941,941,Moyne Bridge,,53.4100761024688,-6.13689098610456,,,,
8240DB000943,943,Portmarnock Bridge,,53.4182478297346,-6.1421758055214,,,,
8240DB000950,950,Baldoyle Church,,53.3996460936372,-6.12803757377906,,,,
8240DB000952,952,Burrowfield Road,,53.3940655466255,-6.12181657388084,,,,
8240DB000957,957,Howth Junction,,53.3903211486795,-6.15781167148504,,,,
8240DB000975,975,Shanliss Way,,53.3992795836443,-6.2526801785497,,,,
8240DB000989,989,Santry Avenue,,53.4010421278572,-6.26259401981266,,,,
8240DB001207,1207,Fingal Cemetery,,53.4107260132157,-6.17901282484351,,,,
8240DB001209,1209,St Doolagh's Park,,53.4169569995424,-6.17797926593371,,,,
8240DB001217,1217,Balgriffin Cottages,,53.4082020654758,-6.17794737507246,,,,
8240DB001581,1581,Cappagh Cross,,53.3980680129982,-6.3339056498134,,,,
8240DB003644,3644,Malahide Demense,,53.4430120664326,-6.17376315649436,,,,
8240DB003661,3661,Copperbush,,53.4291339315057,-6.17784970145645,,,,
8240DB003664,3664,Hampton Cove,,53.6033990486234,-6.16822476981456,,,,
8240DB004926,4926,Highfield Green,,53.4544384960728,-6.22460646305417,,,,
8220DB000228,228,Shanliss Road,,53.391877392779,-6.25971957291398,,,,
8220DB000250,250,Skelly's Lane,,53.3844194499785,-6.22024531610136,,,,
8220DB000253,253,Beaumont Hospital,,53.3899625746413,-6.22429914227646,,,,
8220DB000259,259,Grace Park Road,,53.3740108657416,-6.24388537443071,,,,
8220DB001246,1246,Kilbarron Park,,53.3934932334612,-6.22297928856435,,,,
8220DB001584,1584,Abbottstown Road,,53.3898854600296,-6.31508548205008,,,,
8220DB001586,1586,Coláiste Íde,,53.3865250406196,-6.31261731806413,,,,
8220DB001594,1594,St Helena's Road,,53.3807131944304,-6.29766484522038,,,,
8220DB001596,1596,St Malachy's NS,,53.3830410953015,-6.30081905725314,,,,
8220DB001598,1598,Valeview Drive,,53.3802421780299,-6.3056204400567,,,,
8220DB001606,1606,St Helena's Road,,53.380370683576,-6.30644208983686,,,,
8220DB001608,1608,St Malachy's NS,,53.3830498568531,-6.29954091872958,,,,
8220DB001648,1648,Stoneybatter,,53.3510913675303,-6.28280248510502,,,,
8220DB001651,1651,Vernon Avenue,,53.3679404066283,-6.19485933423548,,,,
8220DB001654,1654,St David's Terrace,,53.35611,-6.29427,,,,
8220DB001656,1656,McKee Park,,53.3573,-6.29883,,,,
8220DB002434,2434,Kimmage Road West,,53.3160265967778,-6.31606020141501,,,,
8220DB002435,2435,Westbrook,,53.3143144024734,-6.3112948332241,,,,
8220DB004319,4319,Heuston Train Stn,,53.346766,-6.292033,,,,
8220DB004389,4389,Clanhugh Road,,53.3734638911592,-6.21069244556676,,,,
8220DB004407,4407,Victoria Quay,,53.346488,-6.285165,,,,
8220DB004498,4498,Nephin Road,,53.3668037534418,-6.30426041382606,,,,
8230DB002115,2115,Oakfield,,53.3256298971273,-6.39524823983732,,,,
8230DB002118,2118,Neilstown Road,,53.3356239897049,-6.40056407537989,,,,
8230DB002123,2123,St Mark's Avenue,,53.3471760338791,-6.39807391277744,,,,
8230DB002128,2128,Neilstown Avenue,,53.3396666624101,-6.39975201801215,,,,
8230DB002225,2225,St Patricks Church,,53.3495522066352,-6.450046763302,,,,
8230DB002227,2227,St Patricks Church,,53.3495639204089,-6.45025662824944,,,,
8230DB002228,2228,Collins Bridge,,53.3713065694226,-6.45588450235384,,,,
8230DB002349,2349,Alderwood,,53.2850288716224,-6.37847238352647,,,,
8230DB002357,2357,Jobstown House,,53.2779689604231,-6.39676450981219,,,,
8230DB002517,2517,Green Acre Court,,53.2892149823068,-6.31859990290756,,,,
8230DB002532,2532,Old Bawn Centre,,53.2756035852835,-6.35443244185324,,,,
8230DB003950,3950,Ball Alley House,,53.3556024866222,-6.45501009445386,,,,
8230DB004340,4340,The Square,,53.286007454621,-6.37377077680566,,,,
8230DB004347,4347,Tallaght Luas,,53.28622205242,-6.37500751308393,,,,
8230DB004348,4348,Tallaght Luas,,53.2866720396011,-6.37505043118617,,,,
8230DB004361,4361,Palmerstown Village,,53.3556115756105,-6.37121195750169,,,,
8230DB004440,4440,Brookview Road,,53.2864295444105,-6.40703679493962,,,,
8230DB004445,4445,Killinarden,,53.2808108887004,-6.38888983885627,,,,
8230DB004602,4602,The Penny Hill,,53.3476264673552,-6.42447739338822,,,,
8230DB007449,7449,Ballyboden Crescent,,53.2818173347135,-6.29577962324492,,,,
8230DB007510,7510,Cloverhill Road,,53.347196,-6.384513,,,,
8230DB007760,7760,Glen Vale,,53.3447268311909,-6.42610123694309,,,,
8230DB007761,7761,Glen Vale,,53.3442584251257,-6.42670422693716,,,,
8230DB007774,7774,Lucan Garda Station,,53.3563059149298,-6.45103358096086,,,,
8230DB007806,7806,St Andrews Drive,,53.3545562472223,-6.4231251515908,,,,
8230DB007807,7807,St Andrews Drive,,53.3544684497215,-6.42260260567956,,,,
8230DB007875,7875,Ninth Lock Road,,53.3271828190871,-6.39509987726236,,,,
8230DB007880,7880,Main Street,,53.3206856645393,-6.39318217095721,,,,
8230DB007881,7881,Liffey Valley Retail Park,,53.3493183603158,-6.39096387788353,,,,
8240DB000693,693,St Fintan's Church,,53.3868925012935,-6.10416603844666,,,,
8240DB000815,815,Forrest Little Golf,,53.439938384136,-6.25001856534404,,,,
8240DB001897,1897,Castlefield Woods,,53.3831119556823,-6.41034462756556,,,,
8240DB003078,3078,Forrest Little Golf,,53.4402654487917,-6.24964384743192,,,,
8240DB003087,3087,Forest Road,,53.446197580935,-6.24047217479154,,,,
8240DB003565,3565,Rush Road,,53.5667590952657,-6.10218346400105,,,,
8240DB003575,3575,Chapel Road,,53.4243220554993,-6.17646046973197,,,,
8240DB003583,3583,St Sylvesters School,,53.4493479035516,-6.16316252497548,,,,
8240DB003691,3691,Swords Main Street,,53.4559770942195,-6.22169616486292,,,,
8240DB003695,3695,Airside,,53.4470560343424,-6.22801584250786,,,,
8240DB003697,3697,Equestrian Centre,,53.4406857249187,-6.22755841839165,,,,
8240DB003704,3704,River Valley Road,,53.4532572952163,-6.23953282020935,,,,
8240DB003707,3707,Rathingle Road,,53.4523515091382,-6.24455429785123,,,,
8240DB003728,3728,Healy's Lane,,53.4960211071094,-6.11399659192224,,,,
8240DB003730,3730,Beach Lane,,53.4992959065247,-6.1164741557133,,,,
8240DB003733,3733,Beach Lane,,53.4994878489989,-6.11667668798503,,,,
8240DB003735,3735,Healy's Lane,,53.4960010037386,-6.11386182538462,,,,
8240DB003736,3736,Portrane,,53.4933698119347,-6.1117328494443,,,,
8240DB003748,3748,Batter Lane,,53.4884854235174,-6.19702251846443,,,,
8240DB003752,3752,Seatown Villas,,53.4624135038535,-6.21814382301445,,,,
8240DB003758,3758,Hannas Avenue,,53.5072797350702,-6.18517332744637,,,,
8240DB003759,3759,Balleally West,,53.5099079820854,-6.18010035950497,,,,
8240DB003774,3774,Healy's Lane,,53.5189039743497,-6.11622264446418,,,,
8240DB003777,3777,St Maur's Church,,53.522618291146,-6.10159352172838,,,,
8240DB003782,3782,Golden Ridge Cresc,,53.5260853506902,-6.09128695104348,,,,
8240DB003789,3789,Thomastown Resevoir,,53.5541356638047,-6.10191839451756,,,,
8240DB007099,7099,Mount Garrett,,53.4217821993025,-6.39122290765652,,,,
8220DB000669,669,Malahide Road,,53.3663170047508,-6.22867890531785,,,,
8220DB000118,118,Clare Road,,53.3766430016908,-6.25359209857681,,,,
8220DB000126,126,Nursing Home,,53.3990954666854,-6.26408696056045,,,,
8220DB000137,137,Clancy Avenue,,53.3923167196303,-6.29263079481432,,,,
8220DB000193,193,Finglas Park,,53.3911963059787,-6.29410403487394,,,,
8220DB000674,674,Parnell Park,,53.3746860705057,-6.21608209235965,,,,
8220DB000959,959,Grange Road,,53.3910184657006,-6.16690837598947,,,,
8220DB000961,961,Millwood Villas,,53.3910568299901,-6.17645454975126,,,,
8220DB000965,965,Malahide Road,,53.3888900839133,-6.19652888129107,,,,
8220DB000966,966,Oscar Traynor Road,,53.3912154012183,-6.20291104884243,,,,
8220DB000967,967,Coolock Drive,,53.3922920610153,-6.20636914233897,,,,
8220DB000968,968,Armstrong Walk,,53.3937589536623,-6.21068316280392,,,,
8220DB000985,985,Finglas Sports Centre,,53.3899247513532,-6.30389772523613,,,,
8220DB000987,987,Finglas,,53.390219926862,-6.29937538551077,,,,
8220DB000993,993,Astro Park,,53.397702596997,-6.22922517485579,,,,
8220DB001000,1000,Beechpark Avenue,,53.39098307668,-6.20180818492748,,,,
8220DB001002,1002,Tonlegee Road,,53.3891754998218,-6.19519371485572,,,,
8220DB001482,1482,Marino Institute,,53.371664,-6.236528,,,,
8220DB001490,1490,Árd Scoil Rís,,53.36887682169,-6.22855766174829,,,,
8220DB001512,1512,Prospect Hill,,53.3821743223388,-6.29172883549396,,,,
8220DB001529,1529,Finglas Village,,53.3884588269272,-6.29815260689777,,,,
8220DB001532,1532,Prospect Hill,,53.381744117229,-6.29055850090005,,,,
8220DB001547,1547,McKee Avenue Estate,,53.3952411658158,-6.30168636640583,,,,
8220DB001576,1576,Cappagh Road,,53.3893174054908,-6.31304812471741,,,,
8220DB001578,1578,Ratoath Drive,,53.3903851294541,-6.31801267740452,,,,
8220DB002327,2327,St Agnes Road,,53.3168544333041,-6.31676307428075,,,,
8220DB002328,2328,Crumlin Garda Station,,53.31959,-6.31552,,,,
8230DB002616,2616,St Maelruan's Park,,53.2846412135097,-6.36063933900619,,,,
8230DB002617,2617,Village Green,,53.2867102221534,-6.36207500786242,,,,
8230DB002621,2621,Kilclare,,53.2821328026302,-6.38960496497797,,,,
8230DB002936,2936,Kilmashogue Cemetery,,53.2660993481776,-6.29782903458391,,,,
8230DB002938,2938,Edmondstown Golf,,53.2716453279264,-6.29910805963689,,,,
8230DB002948,2948,Ballyboden Crescent,,53.2819527231185,-6.29581922742648,,,,
8230DB002950,2950,Pearse Brothers Park,,53.2817934073387,-6.28846191367872,,,,
8230DB004872,4872,Parklands,,53.2755620147915,-6.34234810723409,,,,
8230DB004873,4873,Old Court Farm,,53.2750327915754,-6.34695698774491,,,,
8230DB004884,4884,Parklands,,53.2756284397548,-6.34260045154128,,,,
8230DB004888,4888,Palmerstown Crescent,,53.347429770235,-6.37892880915584,,,,
8230DB004930,4930,Citywest Avenue,,53.2875697149228,-6.42248836386908,,,,
8230DB005011,5011,Belgard Road,,53.3024709725102,-6.37688129130787,,,,
8230DB005125,5125,Brownsbarn Orchard,,53.2985035390396,-6.41942990603116,,,,
8230DB005130,5130,Charleville Square,,53.2966935915937,-6.29332705944726,,,,
8230DB007909,7909,The Glen,,53.2822757186835,-6.29892583641297,,,,
8230DB007940,7940,Liffey Valley Retail Park,,53.3496533769826,-6.39114653108505,,,,
8230DB007967,7967,Citywest SC,,53.2827470180647,-6.42142123870602,,,,
8230DB007968,7968,Ballyboden St Endas,,53.282667723117,-6.30183478657508,,,,
8230DB007979,7979,Newlands Golf Club,,53.31108,-6.38941,,,,
8230DB007989,7989,Shackleton Point,,53.3442551063498,-6.46648928132982,,,,
8230DB008063,8063,The Square,,53.2858208172603,-6.37260798247234,,,,
8230DB008068,8068,New Nangor Junction,,53.3188774256256,-6.43086517885978,,,,
8230DB008070,8070,Kishoge Station,,53.3348757039341,-6.43084854214362,,,,
8230DB008071,8071,Griffeen Avenue,,53.3410812536067,-6.42841308198782,,,,
8230DB008074,8074,New Nangor Junction,,53.3189118746854,-6.43143429412929,,,,
8230DB008086,8086,Greenogue IE,,53.2905026163675,-6.46820525224467,,,,
8230DB008090,8090,Greenogue Rdbt,,53.2918854506578,-6.47160587218403,,,,
8230DB008091,8091,Greenogue IE,,53.2896346297339,-6.46640635034677,,,,
8240DB000936,936,Strand Road,,53.394218242543,-6.12238126190707,,,,
8240DB000945,945,St Rita's House,,53.415309552334,-6.13876842932923,,,,
8240DB000951,951,Strand Road,,53.3958427891929,-6.12452028380279,,,,
8240DB000953,953,Station Road,,53.3932183764443,-6.11995924178041,,,,
8240DB000974,974,Santry Avenue,,53.3978594241088,-6.24715921442295,,,,
8240DB000976,976,Geraldstown Wood,,53.4009566753176,-6.26289828611289,,,,
8240DB001010,1010,Saint Donagh's Park,,53.3905899801719,-6.15834134990966,,,,
8240DB001073,1073,Chamley Park,,53.4506925094597,-6.18704512577394,,,,
8240DB001206,1206,Balgriffin Cottages,,53.4081055544545,-6.1781019198114,,,,
8240DB001208,1208,St Doulagh's Church,,53.4142982100461,-6.1786796615261,,,,
8240DB001216,1216,Fingal Cemetery,,53.410325059698,-6.17865388678546,,,,
8240DB001546,1546,Tyrrelstown,,53.4193454713382,-6.38249828063742,,,,
8240DB003639,3639,Malahide Castle,,53.4454107846609,-6.17310320981944,,,,
8240DB003641,3641,Estuary Road,,53.4527251816328,-6.18358561013736,,,,
8240DB003645,3645,Auburn House,,53.4405342865798,-6.17630809129729,,,,
8240DB003646,3646,Streamstown Lane,,53.4391157583242,-6.17700107163863,,,,
8240DB003647,3647,Myra Manor,,53.4327125972505,-6.176763450967,,,,
8240DB003663,3663,Corballis Park,,53.424597935264,-6.23489392667738,,,,
8240DB003672,3672,Stockhole Lane,,53.4321755004859,-6.23007985141062,,,,
8240DB004976,4976,Indoor Arena,,53.401983727748,-6.36226733035874,,,,
8240DB004978,4978,Corporate Park,,53.4092575333412,-6.37099799453748,,,,
8240DB004990,4990,Damastown Road,,53.4117260673892,-6.42298155958631,,,,
8220DB000104,104,Poppintree Parade,,53.3997562075174,-6.27681294502528,,,,
8220DB000105,105,Belclare Park,,53.4029363966818,-6.28169269646949,,,,
8220DB000110,110,Ard na Meala,,53.3979386409613,-6.26860038147331,,,,
8220DB001009,1009,St. Donagh's Road,,53.3910890756575,-6.16448455072243,,,,
8220DB001012,1012,Naomh Barróg GAA,,53.3902500117155,-6.15262742856302,,,,
8220DB001065,1065,Trinity Hall,,53.3118290249002,-6.26278268022841,,,,
8220DB001086,1086,Terenure Road West,,53.3096695705149,-6.28560608300463,,,,
8220DB001087,1087,Greenlea Road,,53.3103351137685,-6.28939126007519,,,,
8220DB001088,1088,Parkmore Drive,,53.3109735887836,-6.29317763255717,,,,
8220DB001089,1089,Lavarna Grove,,53.3116555855459,-6.29750266095148,,,,
8220DB001090,1090,Kimmage Road West,,53.3121038877658,-6.30057644060381,,,,
8220DB001197,1197,Killester Avenue,,53.3792322771511,-6.21175833300343,,,,
8220DB001220,1220,Killester Avenue,,53.3787625062934,-6.21219890153818,,,,
8220DB001710,1710,Aughrim Street,,53.3555699040255,-6.29174149147947,,,,
8220DB001764,1764,Blackheath Park,,53.3658929687427,-6.19557704044883,,,,
8220DB001767,1767,Clontarf Castle,,53.3638273181033,-6.20522105323392,,,,
8220DB002652,2652,Kylemore Avenue,,53.3388459496904,-6.34810890913175,,,,
8220DB002655,2655,Ballyfermot Parade,,53.3421381592165,-6.35284757646734,,,,
8220DB002672,2672,Cleggan Park,,53.3433589409048,-6.36777417735812,,,,
8220DB002689,2689,Blackditch Drive,,53.3431059999639,-6.36374383192324,,,,
8220DB004937,4937,McKee Avenue,,53.3926718421294,-6.30051059439893,,,,
8220DB005007,5007,Convent Lawns,,53.3441883077869,-6.34965960806547,,,,
8220DB005141,5141,Seafield Road West,,53.3647439834745,-6.20521257219215,,,,
8220DB006074,6074,Earlsfort Terrace,,53.335886,-6.25754,,,,
8220DB006125,6125,Poppintree Parade,,53.3998824003142,-6.27683792298323,,,,
8220DB007946,7946,Milltown Luas,,53.3082965879174,-6.25293170393568,,,,
8220DB007954,7954,Highfield Road,,53.3131362489736,-6.26490579699606,,,,
8220DB007957,7957,Fairfield Park,,53.3126559384601,-6.27082347573675,,,,
8220DB007958,7958,Drimnagh Road,,53.32452,-6.32382,,,,
8220DB008302,8302,Glasnevin Downs,,53.37816,-6.2863,,,,
8220DB008309,8309,Glasnevin Downs,,53.378151,-6.284902,,,,
8220DB008310,8310,Ballyboggan Road,,53.375599,-6.28725,,,,
8220DB008311,8311,Glasnevin Woods,,53.37606,-6.29223,,,,
8230DB002173,2173,Laurel Park,,53.3185518287597,-6.39224166338888,,,,
8230DB002213,2213,Liffey Valley SC,,53.355778,-6.392073,,,,
8230DB002214,2214,Clayton Hotel,,53.3560900353074,-6.39993297587385,,,,
8230DB002980,2980,Three Rock Rovers,,53.2800165259024,-6.27307136678609,,,,
8230DB003370,3370,Finnstown Abbey,,53.3444704239216,-6.44769290531114,,,,
8230DB003399,3399,Newcastle Manor,,53.2960549464973,-6.49200954743977,,,,
8230DB003434,3434,Saggart,,53.2802933824532,-6.44468116163727,,,,
8230DB003456,3456,Citywest Hotel,,53.2838029653562,-6.44087927990569,,,,
8230DB003887,3887,Ardeevin Avenue,,53.3552287991633,-6.4587792832306,,,,
8230DB003890,3890,Dodsboro Road,,53.3506892844034,-6.46430558673123,,,,
8230DB003891,3891,Woodview Heights,,53.3519418727904,-6.4631639865936,,,,
8230DB007015,7015,Kishoge Road,,53.3306866895896,-6.43148275318399,,,,
8230DB007186,7186,Lucan Spa Hotel,,53.356795,-6.465258,,,,
8230DB007441,7441,The Merry Ploughboy,,53.2643730950558,-6.29716303819431,,,,
8240DB000219,219,Ellenfield Road,,53.3878276228583,-6.23853562762507,,,,
8240DB000221,221,Shanowen Road,,53.3897213027248,-6.24689223433643,,,,
8240DB000222,222,Shanliss Road,,53.38994544544,-6.24930371665583,,,,
8240DB000224,224,Shanard Road,,53.3908348357268,-6.25418387835003,,,,
8240DB001841,1841,Church Road,,53.3861213966832,-6.37551968724373,,,,
8240DB001842,1842,Old Navan Road,,53.3849679047261,-6.37133923962534,,,,
8240DB001852,1852,Clonsilla Road,,53.3874063234255,-6.38343887581506,,,,
8240DB001856,1856,Mountview Road,,53.3903480644142,-6.40233187560916,,,,
8240DB001863,1863,Huntstown Green,,53.400615291377,-6.41334660925844,,,,
8240DB001867,1867,Whitestown,,53.3958079083542,-6.39996201049264,,,,
8240DB001873,1873,Sacred Heart Church,,53.4017062047205,-6.41022298930775,,,,
8240DB001877,1877,St Ciaran's Church,,53.3934219094098,-6.41853105535048,,,,
8240DB003678,3678,Swords Main Street,,53.4553229225485,-6.2224312534317,,,,
8240DB003862,3862,Blake's Cross,,53.5022905025707,-6.19223065118369,,,,
8240DB003863,3863,Turvey Avenue,,53.4945347953781,-6.19467077304176,,,,
8240DB003867,3867,New Dairy Lane,,53.473184974704,-6.2567857261963,,,,
8240DB003881,3881,New Dairy Lane,,53.4733308925735,-6.25693039302792,,,,
8240DB004321,4321,Cold Stores,,53.4115449191916,-6.37000801375911,,,,
8240DB004489,4489,Sheepmoor Grove,,53.3944158097466,-6.39936766071924,,,,
8240DB004493,4493,Mountview Road,,53.3905818145899,-6.40032343206004,,,,
8240DB004742,4742,Damastown Green,,53.4109786125809,-6.42015115596057,,,,
8240DB004765,4765,Huntstown Wood,,53.4035321061131,-6.41438109242278,,,,
8240DB004826,4826,Westmanstown Sports,,53.3795403072026,-6.43936786040379,,,,
8240DB007343,7343,Corporate Park 2,,53.4128446843854,-6.3612182168949,,,,
8240DB007381,7381,Damastown Ind Park,,53.4103480974644,-6.41597775306733,,,,
8240GD10336,10336,Rokeby Rdbt,,53.3620036972448,-6.45515413311111,,,,
8250DB002896,2896,Millmount Terrace,,53.3059934437186,-6.24604803214662,,,,
8250DB002897,2897,Luke's Crescent,,53.3081951641027,-6.24663306960328,,,,
8250DB002969,2969,Marley Park,,53.27940272893,-6.27041174873562,,,,
8250DB002979,2979,Marley Park,,53.2784652138321,-6.26836514411796,,,,
8250DB002995,2995,South Park,,53.2701719335122,-6.15995348215128,,,,
8220B1351401,135141,George's Quay,,53.347377,-6.252222,,,,
8220B1353301,135331,Dawson Street,,53.340134371715,-6.25858361137312,,,,
8220DB001382,1382,Dolphins Barn Church,,53.3331731706702,-6.29059460205893,,,,
8220B111761,111761,Westland Row Church,,53.342626,-6.250132,,,,
8220B1351001,135101,Wellington Quay,,53.3458641751298,-6.26381729294171,,,,
8220B1351201,135121,Connolly Station,,53.3502180212919,-6.25052670165242,,,,
8220DB001424,1424,Crumlin Hospital,,53.3256625125853,-6.31674662153124,,,,
8220DB002101,2101,Crumlin Hospital,,53.3249545652162,-6.31817063885906,,,,
8220DB002182,2182,Walkinstown Parade,,53.3239619234578,-6.33518822198748,,,,
8220DB002726,2726,Long Mile Road,,53.3238143897113,-6.33042017959452,,,,
8220DB002727,2727,Drimnagh Castle,,53.3237589731417,-6.33288429328556,,,,
8220DB002785,2785,Bluebell Avenue,,53.3300839894121,-6.3449642241989,,,,
8220DB002786,2786,Kylemore Luas,,53.3278418116009,-6.34336953184564,,,,
8220DB007044,7044,Aulden Grange,,53.3974093697435,-6.2324855678718,,,,
8230DB001134,1134,Rathfarnham SC,,53.2955073210814,-6.29837004294662,,,,
8230DB001139,1139,Old Bridge Road,,53.2942244156253,-6.3067469243238,,,,
8230DB002536,2536,Old Bawn Court,,53.2829548505558,-6.35957908118632,,,,
8230DB002538,2538,The Crescent,,53.281534566011,-6.35891362658071,,,,
8230DB002545,2545,Monalea Wood,,53.2862572397529,-6.33263488680672,,,,
8230DB002548,2548,Green Acre Court,,53.2895027570802,-6.31797360538886,,,,
8230DB002573,2573,Kiltalown Cottages,,53.2742753736041,-6.40685901933231,,,,
8230DB002575,2575,Corbally Vale,,53.2771580082963,-6.41882308493603,,,,
8230DB002592,2592,Kiltalown Cottages,,53.2743034961588,-6.40627319230772,,,,
8230DB004640,4640,Tallaght Hospital,,53.2893956247966,-6.37374708548248,,,,
8230DB006133,6133,Laraghcon,,53.3607693710254,-6.45214878291873,,,,
8230DB006216,6216,College Road,,53.2940848387281,-6.48195316676278,,,,
8230GD10110,10110,Ard Mor Drive,,53.2844294338443,-6.4201893844012,,,,
8230GD10150,10150,Ard Mor Drive,,53.2853229414188,-6.41775670508332,,,,
8230GD10335,10335,Rokeby Park,,53.3637500211944,-6.45536141551963,,,,
8240DB001816,1816,Waterville Row,,53.3930899834739,-6.37838182081908,,,,
8240DB001820,1820,Corduff Grove,,53.4010807396661,-6.37511526304501,,,,
8240DB001824,1824,Saddlers Avenue,,53.4007957912643,-6.39390969723514,,,,
8240DB003592,3592,Monks Meadow,,53.4378792433121,-6.1227143788218,,,,
8240DB003601,3601,Blackberry Rise,,53.4261017258039,-6.13111883041268,,,,
8240DB003604,3604,Portmarnock Crescent,,53.4324293095028,-6.12480585510121,,,,
8240DB003619,3619,Robswall Crescent,,53.4447042716414,-6.12805903347919,,,,
8240DB003620,3620,Biscayne,,53.446472388699,-6.13421430205906,,,,
8240DB003792,3792,Hacketstown Park,,53.5660089453442,-6.10248882342336,,,,
8240DB003798,3798,Skerries,,53.5803448686388,-6.10702707986994,,,,
8240DB003801,3801,North Cliff Heights,,53.5806398481625,-6.12747889213873,,,,
8240DB003815,3815,Northcliffe Heights,,53.5819436108069,-6.12521610454487,,,,
8240DB003819,3819,Skerries,,53.5799971152272,-6.10663483687719,,,,
8240DB003825,3825,Hacketstown Cottages,,53.5622935202512,-6.1034100005827,,,,
8240DB003829,3829,Loughshinny Cross,,53.5472843208985,-6.10119883335707,,,,
8240DB003832,3832,Rush Athletic FC,,53.5391482957453,-6.09261549394233,,,,
8240DB003833,3833,Clifflands,,53.5336598500605,-6.09056906002573,,,,
8240DB003836,3836,Kilbrush Lane,,53.5234141855249,-6.09118082630061,,,,
8240DB003837,3837,Rush Main Street,,53.5220169762669,-6.09261616569218,,,,
8240DB003844,3844,Healy's Lane,,53.5186992929802,-6.11635237691323,,,,
8240DB003845,3845,Whitestown Cemetery,,53.5176538464704,-6.12016898409778,,,,
8240DB003848,3848,Beau Hill,,53.5203475847627,-6.13837411073167,,,,
8240DB003849,3849,Rush & Lusk Stn,,53.5209865216053,-6.14189036504845,,,,
8240DB003854,3854,Station Road,,53.5253496918573,-6.16483750303377,,,,
8240DB003858,3858,Bridetree,,53.5109716606158,-6.17794380478901,,,,
8240DB007097,7097,Belgree Boulevard,,53.4201410048346,-6.38483026083258,,,,
8250DB000448,448,Arena Road,,53.2748387450038,-6.20667259332136,,,,
8250DB000449,449,Blackthorn Road,,53.2763228251629,-6.21692737889845,,,,
8250DB000462,462,Mount Merrion Avenue,,53.2969602392075,-6.20318037019715,,,,
8250DB000464,464,Southhill Avenue,,53.2982022449491,-6.19852223943138,,,,
8250DB000468,468,Sydney Avenue,,53.3020292372309,-6.18416679983896,,,,
8250DB000765,765,UCD,,53.3052550302794,-6.21686235884919,,,,
8250DB000767,767,UCD,,53.305297252574,-6.21668053124513,,,,
8250DB001307,1307,Ely House,,53.2942028812997,-6.27762965813619,,,,
8250DB001312,1312,Good Shepherd Ch,,53.293309965035,-6.26131412008183,,,,
8250DB001313,1313,Camberly Oaks,,53.2941991032753,-6.25880272840952,,,,
8250DB001318,1318,Loreto Avenue,,53.2925350392154,-6.27231138276868,,,,
8250DB002007,2007,Woodbine Road,,53.3088750410388,-6.21611120483354,,,,
8250DB002023,2023,Abbey Road,,53.2812918182668,-6.15829093095019,,,,
8250DB002028,2028,Oliver Plunkett Ave,,53.2853228023152,-6.1533329323347,,,,
8250DB002029,2029,Oliver Plunkett Road,,53.2838873843258,-6.14945027968804,,,,
8250DB002031,2031,Mounttown Road Lower,,53.2861123043911,-6.14570933636036,,,,
8250DB002032,2032,York Road,,53.2895238358921,-6.14487156098942,,,,
8250DB003144,3144,Cherrywood Road,,53.2456905241004,-6.13527501799832,,,,
8250DB003156,3156,Deansworth,,53.2765380994042,-6.16302404879025,,,,
8250DB003159,3159,Deansgrange Cemetery,,53.2824610519858,-6.16591951409938,,,,
8250DB003160,3160,St Fintan's Villas,,53.284504,-6.166747,,,,
8250DB003171,3171,Newtown Park,,53.2874250402167,-6.17662651860843,,,,
8250DB003175,3175,Stillorgan Road,,53.2796195211628,-6.18345245110449,,,,
8250DB003184,3184,Moreen Avenue,,53.2761924013799,-6.22384571458298,,,,
8250DB003187,3187,Burton Hall Road,,53.2738266122562,-6.20332617138686,,,,
8250DB003189,3189,Silverpark GAA,,53.2738443410885,-6.19557317570234,,,,
8250DB003198,3198,Carysfort Avenue,,53.2898856439932,-6.18060181667812,,,,
8220DB000981,981,Finglas Garda Station,,53.3897809067944,-6.30706083246079,,,,
8220DB000999,999,Coolock Drive,,53.3922410515282,-6.20596530798649,,,,
8220DB001003,1003,St John's Church,,53.3902995343274,-6.19107150115658,,,,
8220DB001006,1006,Millwood Villas,,53.3911703560513,-6.17682559538368,,,,
8220DB001007,1007,Millbrook Drive,,53.3912462839647,-6.17238672965418,,,,
8220DB001476,1476,Sarsfield Quay,,53.3470736855762,-6.28467627539548,,,,
8220DB001492,1492,Marino Church,,53.3702573904197,-6.23255805716234,,,,
8220DB001528,1528,St David's Terrace,,53.3561954281552,-6.29400002572951,,,,
8220DB001538,1538,Clearwater SC,,53.3844741413118,-6.29479375491463,,,,
8220DB001548,1548,McKee Avenue North,,53.3961101450105,-6.30274949327834,,,,
8220DB001574,1574,Cardiffsbridge SC,,53.3855939979914,-6.31287964710487,,,,
8220DB002199,2199,Glenaulin,,53.3519682958547,-6.35590853399226,,,,
8220DB002329,2329,Crumlin Village,,53.3209014798777,-6.31693402537415,,,,
8220DB002330,2330,Sommerville Avenue,,53.3221480438958,-6.31928677990814,,,,
8220DB002331,2331,St Mary's Road,,53.3245717749239,-6.31779537774905,,,,
8220DB007828,7828,Shangan Road,,53.3970949171465,-6.26496540243236,,,,
8220GD007829,7829,Shangan Road,,53.3973130944587,-6.26575353584968,,,,
8220GD8340,8340,Broombridge Station,,53.37219,-6.300028,,,,
8230DB002605,2605,St Maelruan's Park,,53.2840559727596,-6.35991184833955,,,,
8230DB002629,2629,Fettercairn Crescent,,53.2882044380089,-6.3986311709783,,,,
8230DB002673,2673,Cherry Orchard IE,,53.3437794112348,-6.3728945596684,,,,
8230DB002674,2674,Sports Club,,53.347496,-6.389111,,,,
8230DB002685,2685,Coldcut Road,,53.3479550926902,-6.39585174508453,,,,
8230DB002686,2686,Sports Club,,53.3476521871345,-6.38871352372212,,,,
8230DB002687,2687,Cherry Orchard IE,,53.3439611243587,-6.37303782918349,,,,
8230DB002927,2927,Edmondstown Road,,53.2771350458166,-6.29707560202323,,,,
8230DB002933,2933,Rockbrook,,53.2618708812217,-6.2975472759663,,,,
8230DB002937,2937,Edmondstown NS,,53.2686479761876,-6.29880725582638,,,,
8230DB004798,4798,Coldcut Road,,53.3456142784649,-6.38092018172728,,,,
8230DB004874,4874,Old Court Road,,53.2746971546154,-6.3506286338437,,,,
8230DB004886,4886,Woodstown,,53.2768593539206,-6.32968674190357,,,,
8230DB004929,4929,Verschoyle Avenue,,53.2808055658924,-6.42141781405818,,,,
8230DB004931,4931,Orchard Avenue,,53.2890187819089,-6.4253598790925,,,,
8230DB005008,5008,Belgard Square North,,53.2904501890287,-6.36935699388662,,,,
8230DB005131,5131,Charleville Square,,53.2969745380315,-6.29160556321332,,,,
8230DB007976,7976,Liffey Valley West,,53.3527127584843,-6.39607867500632,,,,
8230DB007986,7986,St. Helen's,,53.3423156286319,-6.4687365095647,,,,
8230DB007987,7987,St. Helen's,,53.3421693844471,-6.46854651497138,,,,
8230DB007988,7988,Shackleton Point,,53.3443749813964,-6.4667252808429,,,,
8230DB007990,7990,Tandy's Lane,,53.3465099292417,-6.46570243322276,,,,
8230DB008064,8064,Cheeverstown Luas,,53.2910357245486,-6.40736042293249,,,,
8230DB008066,8066,Green Isle Road,,53.3040071097096,-6.42168741793346,,,,
8230DB008072,8072,Kishoge Station,,53.3341905836084,-6.43069350826934,,,,
8230DB008075,8075,Kingswood BP,,53.3071355363937,-6.42445314736056,,,,
8230DB07755,7755,Clayton Hotel,,53.3535458643885,-6.40123005703324,,,,
8240DB000914,914,Willie Nolan Road,,53.398756896241,-6.12750513786145,,,,
8240DB000938,938,Red Arches Rd,,53.4015430636002,-6.13036064599348,,,,
8240DB000944,944,Coast Road,,53.4172420695388,-6.14223470115145,,,,
8240DB000949,949,The Coast,,53.4031715594747,-6.13161277863042,,,,
8240DB000990,990,Shanliss Way,,53.3988912223098,-6.25071100826049,,,,
8240DB001041,1041,Swords Road,,53.4540581516029,-6.21176272292676,,,,
8240DB001212,1212,Kinsealy School,,53.4205603269215,-6.17674184269526,,,,
8240DB001215,1215,St Doulagh's Church,,53.4133944396158,-6.17894394209976,,,,
8240DB001545,1545,Westend Office Park,,53.3927566349334,-6.38428863097674,,,,
8240DB003634,3634,Malahide Station,,53.450455309433,-6.15511948757264,,,,
8240DB003642,3642,Sacred Heart Church,,53.455126164714,-6.18129963413743,,,,
8240DB003643,3643,Yellow Walls Rd,,53.451237902596,-6.16917912660044,,,,
8240DB003653,3653,Feltrim Business Pk,,53.448718,-6.204474,,,,
8240DB003656,3656,Feltrim Business Pk,,53.448528,-6.204422,,,,
8240DB003662,3662,Baskin Lane,,53.423232446825,-6.17632654134708,,,,
8240DB004991,4991,Damastown Green,,53.4110854187649,-6.42007198510993,,,,
8240DB005073,5073,Pinnockhill,,53.4506387634204,-6.22354536361084,,,,
8240DB005078,5078,Watery Lane,,53.4598533729605,-6.22367269189687,,,,
8240DB005096,5096,Rathbeale Road,,53.4726344563054,-6.25355434286812,,,,
8240DB005165,5165,Willowbrook,,53.4913768382333,-6.13938725430073,,,,
8240DB005176,5176,Whitestown Cemetery,,53.5178547109697,-6.11922507078371,,,,
8240DB006005,6005,Plaza Apartments,,53.4199426183228,-6.38345358073986,,,,
8240DB006048,6048,Peter & Paul Church,,53.6045004892056,-6.18446749406753,,,,
8240DB006055,6055,Waterside,,53.4529145530016,-6.19786733193744,,,,
8240DB006135,6135,Hillcourt,,53.4312455162803,-6.13473093057652,,,,
8240DB006228,6228,Melville,,53.399830687923,-6.29263072232741,,,,
8240DB006230,6230,Meakstown Centre,,53.4014093374548,-6.29680859370245,,,,
8240DB006274,6274,Aquatic Centre,,53.3976783860066,-6.37145537264096,,,,
8240DB007002,7002,Airside,,53.4459849263596,-6.22428157128236,,,,
8250DB000434,434,Woodlands Park,,53.2977014085789,-6.19987859145678,,,,
8250DB002046,2046,Mounttown Rd Lower,,53.2858693158491,-6.14568986154826,,,,
8250DB002047,2047,Oliver Plunkett Road,,53.2836394538024,-6.14737623943144,,,,
8250DB002050,2050,Monkstown Avenue,,53.2868425904827,-6.15686722573667,,,,
8220B1354001,135401,Heuston Station,,53.346033,-6.292647,,,,
8220DB001945,1945,Inchicore Library,,53.3405547841693,-6.30968740041896,,,,
8220DB001956,1956,Kylemore Luas,,53.3263654179245,-6.34384709401736,,,,
8220DB002702,2702,Kylemore Avenue,,53.3381032999033,-6.34770212371673,,,,
8220DB002783,2783,Kylemore Way,,53.3353593085973,-6.34686219628394,,,,
8220DB007092,7092,Dolmen Court,,53.3981870002067,-6.27209420381958,,,,
8220DB007130,7130,Cromcastle Green,,53.3930727351719,-6.22069621903415,,,,
8230DB001133,1133,Butterfield Grove,,53.2947048131243,-6.30134229094509,,,,
8230DB001138,1138,Butterfield Grove,,53.2948344415925,-6.30034702748834,,,,
8230DB001140,1140,Woodbrook Park,,53.2932846125221,-6.3095593293632,,,,
8230DB001149,1149,St Colmcilles School,,53.2793580012336,-6.31562770910345,,,,
8230DB001329,1329,St Mary's School,,53.2949669228751,-6.28199447212766,,,,
8230DB001977,1977,Red Cow Hotel,,53.3205468241654,-6.36183011161261,,,,
8230DB002540,2540,Old Bawn Centre,,53.275531598616,-6.3537754303515,,,,
8230DB002547,2547,Knocklyon Avenue,,53.2891047658682,-6.3235391509205,,,,
8230DB002590,2590,Belfry Downs,,53.2751454328557,-6.41549358352696,,,,
8230DB002591,2591,De Selby Estate,,53.2746108567552,-6.41044522105174,,,,
8230DB004611,4611,St Finnian's,,53.3489238790194,-6.43976549945544,,,,
8230DB004616,4616,Lucan Comm College,,53.3476964776803,-6.45110540898336,,,,
8230DB004617,4617,Pfizer Ireland,,53.3266657523688,-6.43945187383432,,,,
8230DB004633,4633,Ballyowen Park,,53.354980161821,-6.4218776425824,,,,
8230DB004646,4646,Tallaght Hospital,,53.2894387134306,-6.3742704403854,,,,
8230DB006128,6128,Ballycullen Avenue,,53.2831019273178,-6.34097643683369,,,,
8230DB006134,6134,Laraghcon,,53.3608260222202,-6.45166594019241,,,,
8230DB006187,6187,Ballynakelly,,53.2950889867214,-6.48883325442412,,,,
8230GD10109,10109,Brookview Avenue,,53.2856987742369,-6.41019864060515,,,,
8230GD10385,10385,Rathcoole,,53.2841675059601,-6.46342262467874,,,,
8240DB001645,1645,Collins Avenue Ext,,53.3890906990746,-6.2640130025971,,,,
8240DB001813,1813,Blanchardstown Vlge,,53.3856797486852,-6.37410831307698,,,,
8240DB001817,1817,Corduff Crescent,,53.3960529762365,-6.37485570843335,,,,
8240DB003590,3590,Muldowney Court,,53.4487594020543,-6.1373511779914,,,,
8240DB003594,3594,Portmarnock Hotel,,53.4296982618551,-6.12718355130884,,,,
8240DB003597,3597,The Dunes,,53.423985366889,-6.13315282353766,,,,
8240DB003599,3599,Portmarnock,,53.4216464103909,-6.13647533462096,,,,
8240DB003602,3602,Blackberry Lane,,53.4283830499907,-6.12871620447899,,,,
8240DB003608,3608,Hillcourt,,53.4310857729971,-6.13428642172767,,,,
8240DB003612,3612,Community School,,53.4333688566452,-6.13659455646576,,,,
8240DB003613,3613,Redfern Avenue,,53.4350997464309,-6.13462231666528,,,,
8240DB003616,3616,Wendell Avenue,,53.4342760576517,-6.12392681591476,,,,
8240DB003618,3618,Monks Meadow,,53.4386940037045,-6.12308488364292,,,,
8240DB003623,3623,Mayfair,,53.4506565379267,-6.14374269102443,,,,
8240DB003791,3791,Hacketstown Cottages,,53.5625102767422,-6.10347578590554,,,,
8240DB003793,3793,Shenick Road,,53.569907943875,-6.10124216180176,,,,
8240DB003794,3794,Skerries RFC,,53.5730117633981,-6.1019940041645,,,,
8240DB003795,3795,Brookville Lane,,53.5750456594264,-6.10442481224321,,,,
8240DB003797,3797,Strand Street,,53.5786897564723,-6.10637611681415,,,,
8240DB003808,3808,Craoibhin Park,,53.6059096021474,-6.17724386956803,,,,
8240DB003812,3812,Fancourt Heights,,53.6051011443325,-6.17079568279357,,,,
8240DB003813,3813,Ardgillan Demesne,,53.591386081282,-6.15619056938001,,,,
8240DB003816,3816,Mourne Drive,,53.5804715573695,-6.12763736417508,,,,
8240DB003822,3822,Brookville Lane,,53.575369477496,-6.10444052635985,,,,
8240DB003823,3823,Skerries RFC,,53.5727715342538,-6.10158195029206,,,,
8240DB003826,3826,Pierstown Lane,,53.5584848258592,-6.10241805604814,,,,
8240DB003827,3827,Thomastown Resevoir,,53.5539817780894,-6.1018498143935,,,,
8240DB003835,3835,Rush Cricket Club,,53.528835424131,-6.09126885660613,,,,
8240DB003842,3842,Millbank Court,,53.5213742401995,-6.1064603958286,,,,
8240DB003846,3846,Spout Road,,53.5181902558226,-6.12742938736626,,,,
8240DB003851,3851,Rosewood,,53.5219290636652,-6.1481836908126,,,,
8240DB007026,7026,Blanchardstown SC,,53.3938952323928,-6.3920644535514,,,,
8240DB007040,7040,Lanestown,,53.4805505060597,-6.19176899466253,,,,
8250DB000450,450,Heather Road,,53.2750940462756,-6.21349966939986,,,,
8250DB001311,1311,Whitebarn Road,,53.2921889289408,-6.26456985817925,,,,
8250DB001314,1314,Nutgrove Avenue,,53.2942267141944,-6.25823154104951,,,,
8250DB001315,1315,Whitebarn Road,,53.2921661624614,-6.26424076010732,,,,
8250DB001316,1316,Good Shepherd Ch,,53.2930207433537,-6.26182090884648,,,,
8250DB001319,1319,Nutgrove Court,,53.2937102018088,-6.27587930843346,,,,
8250DB002008,2008,Seafield Road,,53.3056004028777,-6.21111575700184,,,,
8250DB002009,2009,Radisson Hotel,,53.3033395733521,-6.20780413886588,,,,
8250DB002026,2026,Monkstown Avenue,,53.2866440580648,-6.15972563276109,,,,
8250DB002027,2027,Monkstown Farm,,53.286959129485,-6.15684720954072,,,,
8250DB002030,2030,Oliver Plunkett Ct,,53.2836776105642,-6.14693963922275,,,,
8250DB002035,2035,Crofton Road,,53.295772349365,-6.14266542172264,,,,
8250DB003139,3139,Stonebridge Close,,53.2300638455998,-6.12409047067359,,,,
8250DB003140,3140,Stonebridge Close,,53.2297600975643,-6.12420860762254,,,,
8250DB003153,3153,Old Bray Road,,53.2658163136346,-6.15903112569051,,,,
8240DB004992,4992,Damastown Ind Park,,53.4106754626585,-6.41762024198774,,,,
8240DB005064,5064,Balbriggan,,53.6059394887024,-6.18393728224191,,,,
8240DB005069,5069,Somerton,,53.4915007094751,-6.13926125841889,,,,
8240DB005071,5071,Alexion,,53.4109617026667,-6.37601723284509,,,,
8240DB005072,5072,Corporate Park,,53.4093093811807,-6.37084559393011,,,,
8220DB000341,341,South Townsend Street,,53.345945,-6.256424,,,,
8220DB000760,760,Donnybrook Church,,53.3183301872864,-6.2305619559304,,,,
8220DB001421,1421,Crumlin Hospital,,53.3249507659531,-6.3204526633011,,,,
8220DB001911,1911,Prussia Street,,53.356538,-6.2883,,,,
8220DB002102,2102,Balfe Road,,53.324194846075,-6.32614190218012,,,,
8220DB002105,2105,Walkinstown Parade,,53.3236525793889,-6.33749707765403,,,,
8220DB002778,2778,Drimnagh Castle,,53.3240244462321,-6.33194320027363,,,,
8220DB002782,2782,Bluebell Avenue,,53.3306772641398,-6.34561689907677,,,,
8220DB002784,2784,Kylemore Way,,53.3352389913353,-6.34661157959849,,,,
8220DB002787,2787,Walkinstown Avenue,,53.325100739683,-6.3414490678111,,,,
8220DB007112,7112,Astro Park,,53.3975490018268,-6.22917140050022,,,,
8220DB007840,7840,Malahide Road,,53.3751291122291,-6.21806259281755,,,,
8230DB001132,1132,Anne Devlin Road,,53.2943500745688,-6.30483674698737,,,,
8230DB001330,1330,Willbrook Road,,53.296191017948,-6.28398565628827,,,,
8230DB002539,2539,Kiltipper Road,,53.2765355041079,-6.35618107892913,,,,
8230DB002544,2544,Woodlawn,,53.2848726769895,-6.33582343205563,,,,
8230DB002557,2557,Tallaght Village,,53.2885064213358,-6.36328124896313,,,,
8230DB002574,2574,De Selby Estate,,53.2745607514054,-6.41073197519198,,,,
8230DB004612,4612,Arthur Griffith Park,,53.3474491563756,-6.44246287111903,,,,
8230DB004613,4613,Esker Cottages,,53.3450849760289,-6.44450154015427,,,,
8230DB004626,4626,Arthur Griffith Park,,53.3473099255832,-6.4428134051696,,,,
8230DB004627,4627,St Finnian's,,53.3491988362226,-6.43948508708763,,,,
8230DB005164,5164,Fforster Green,,53.35037673202,-6.4231141972725,,,,
8230DB006095,6095,Glenshane,,53.2867623972427,-6.39633029423498,,,,
8230GD10151,10151,Brookview Avenue,,53.2858013795754,-6.40980487257525,,,,
8230GD10154,10154,Scholarstown Park,,53.2793777050522,-6.31003328977485,,,,
8240DB001825,1825,Church Road,,53.4017651100113,-6.39581324479973,,,,
8240DB001826,1826,Lady's Well Road,,53.4059077232414,-6.39508582656323,,,,
8240DB003595,3595,Blackberry Lane,,53.42740822389,-6.12960176741948,,,,
8240DB003598,3598,Portmarnock,,53.4217393453289,-6.13609509819778,,,,
8240DB003605,3605,Wendell Avenue,,53.4339680619817,-6.12491871315427,,,,
8240DB003606,3606,Kelvin Close,,53.4349291947609,-6.13003907103487,,,,
8240DB003607,3607,Redfern Avenue,,53.4349010292834,-6.13628668774067,,,,
8240DB003611,3611,Ardilaun,,53.4288464783435,-6.13363204181764,,,,
8240DB003615,3615,Briar Walk,,53.4353131956558,-6.13160263373438,,,,
8240DB003621,3621,Muldowney Court,,53.4483822211885,-6.13679554572955,,,,
8240DB003802,3802,Mourne View,,53.5818221243877,-6.12549334885521,,,,
8240DB003806,3806,Hampton Cove,,53.6029773229773,-6.1676839093723,,,,
8240DB003807,3807,Fancourt Heights,,53.6050205376649,-6.1708142787452,,,,
8240DB003811,3811,Hampton Street,,53.6058812846317,-6.17479691609301,,,,
8240DB003820,3820,Strand Street,,53.5778728035626,-6.10586895136944,,,,
8240DB003834,3834,Palmer Road,,53.5309421868196,-6.09149089228852,,,,
8240DB003838,3838,Community Centre,,53.52252612963,-6.09636395702956,,,,
8240DB003840,3840,Rush Garda Station,,53.5228106233443,-6.10012189143021,,,,
8240DB003850,3850,Rogerstown Lane,,53.5215937727796,-6.14626779387013,,,,
8240DB003855,3855,Barrack Lane,,53.5230661185423,-6.16772653046037,,,,
8240DB003859,3859,Balleally West,,53.5098020319002,-6.18022552338638,,,,
8240DB007025,7025,Blanchardstown SC,,53.394169,-6.391609,,,,
8240DB007039,7039,Portrane,,53.4935223021132,-6.1100078265081,,,,
8240DB007041,7041,Lanestown,,53.4810773594894,-6.19094799634832,,,,
8250DB000466,466,Glenvar Park,,53.3000977676634,-6.19133060146651,,,,
8250DB000467,467,Cross Avenue,,53.3010000618752,-6.18800654129058,,,,
8250DB000878,878,Clonskeagh Road,,53.3081533590685,-6.23709057703855,,,,
8250DB001035,1035,Beaumont Avenue,,53.295103741541,-6.25612557753292,,,,
8250DB001306,1306,Rathfarnham Wood,,53.2946579750647,-6.27989161936704,,,,
8250DB001309,1309,Loreto Avenue,,53.292472234049,-6.2716988746559,,,,
8250DB001310,1310,Nutgrove Retail Park,,53.2917165839034,-6.26731915076262,,,,
8250DB001317,1317,Loreto Park,,53.2919347714584,-6.26996547269059,,,,
8250DB002010,2010,Booterstown Avenue,,53.2988972413331,-6.20467441021003,,,,
8250DB002025,2025,Abbey Park,,53.2849038275004,-6.1605353598615,,,,
8250DB002033,2033,Knapton Court,,53.2914782410317,-6.14339177356122,,,,
8250DB003143,3143,St Columcille's Hospital,,53.2426905108369,-6.13082038272716,,,,
8250DB003154,3154,Meadow Vale,,53.2719834439993,-6.16085029183857,,,,
8250DB003165,3165,Carysfort Avenue,,53.2993460724117,-6.17973453749188,,,,
8250DB003176,3176,Leopardstown Rd,,53.2775748248334,-6.18611848943724,,,,
8250DB003177,3177,Foxrock Manor,,53.2760723085132,-6.1883864560736,,,,
8250DB003179,3179,Racecourse,,53.2730037855382,-6.1988323771337,,,,
8250DB003188,3188,Racecourse,,53.2731773978754,-6.19902000524394,,,,
8250DB003190,3190,Torquay Road,,53.2748845875592,-6.19185556505106,,,,
8250DB003191,3191,Foxrock Manor,,53.2763141538316,-6.18833124044106,,,,
8250DB003192,3192,Kelston Park,,53.2774821726676,-6.18652730499117,,,,
8250DB003193,3193,Newtownpark Avenue,,53.2798335028089,-6.1833383971239,,,,
8250DB003200,3200,UCD Smurfit,,53.2966726719456,-6.18065838407962,,,,
8250DB003208,3208,St Kevin's School,,53.2761873318174,-6.13867120873372,,,,
8250DB004981,4981,Pearse Villas,,53.272665049364,-6.13759471676274,,,,
8250DB005047,5047,Valley Drive,,53.2458119527318,-6.14016983992928,,,,
8250DB005142,5142,Sandyford Luas,,53.2776744715647,-6.20517423011536,,,,
8250DB005143,5143,Blackthorn Green,,53.2756669550539,-6.22779626138933,,,,
8240DB004974,4974,Aquatic Centre,,53.3989987856538,-6.36941989342409,,,,
8240DB005074,5074,Swords Pavilions,,53.4531503866644,-6.21597187187099,,,,
8240DB005079,5079,Swords Pavilions,,53.4530190133083,-6.21560093598481,,,,
8240DB005175,5175,Batter Lane,,53.489719292845,-6.19659340462074,,,,
8240DB006015,6015,Cherry Avenue,,53.4483357564401,-6.2385770672463,,,,
8240DB006117,6117,Swords Pavilions SC,,53.4543803016702,-6.21587513605343,,,,
8240DB006171,6171,Waterville Road,,53.396015,-6.37406,,,,
8240DB006219,6219,Melville Road,,53.3998364912365,-6.29303653633855,,,,
8240DB006366,6366,Century Business Pk,,53.4026514127009,-6.30134609639605,,,,
8250DB000432,432,Hyde Park Avenue,,53.2995559648238,-6.19294389297002,,,,
8250DB000433,433,Grove Avenue,,53.2986279440755,-6.19635883802389,,,,
8250DB002044,2044,Knapton Court,,53.2908723467652,-6.14373306750118,,,,
8250DB003059,3059,Church Road,,53.2800139122761,-6.10711611757975,,,,
8250DB003063,3063,Sandycove Road,,53.2859751405739,-6.11631704477889,,,,
8250DB003067,3067,Sandycove Station,,53.2884048690771,-6.12734012123669,,,,
8250DB003068,3068,George's St Upper,,53.2898294885083,-6.13048790165216,,,,
8250DB003074,3074,Drayton Close,,53.294424,-6.159308,,,,
8250DB003075,3075,Queen's Park,,53.2948803787192,-6.16225195149112,,,,
8250DB003077,3077,Montpellier Manor,,53.2959197205654,-6.16846336894471,,,,
8250DB003082,3082,Frascati Road,,53.3004535895189,-6.17809699943885,,,,
8250DB003091,3091,Avondale Road,,53.273645407713,-6.12387685471164,,,,
8250DB003098,3098,Killiney Hill Park,,53.267868888355,-6.11438450210848,,,,
8250DB003103,3103,Ballinaclea Road,,53.2708846275575,-6.12150878580088,,,,
8250DB003108,3108,Bellevue Avenue,,53.2745892672588,-6.12331068476048,,,,
8250DB003111,3111,Barnhill Avenue,,53.2773836570187,-6.11527029466565,,,,
8250DB003128,3128,Cabinteely PO,,53.2612975538003,-6.15105547959075,,,,
8250DB004202,4202,Woodbrook College,,53.216000345909,-6.11974850993053,,,,
8250DB004203,4203,St James's Church,,53.2197605963289,-6.12051229350626,,,,
8250DB004204,4204,Shanganagh Castle,,53.22332409362,-6.12362125997854,,,,
8250DB004332,4332,Nutgrove SC,,53.2900844163596,-6.26881022861994,,,,
8250DB004337,4337,Nutgrove SC,,53.2907250320826,-6.26897932936462,,,,
8250DB004395,4395,Ballyogan Court,,53.2572217971784,-6.1894380984505,,,,
8250DB004774,4774,Leopardstown Valley,,53.2581461851596,-6.19824268011943,,,,
8260B102101,102101,Irishtown Upper,,53.3122921361159,-6.65236139421748,,,,
8260B1025301,102531,Curryhills,,53.2886594091657,-6.73994875585742,,,,
8260B1026501,102651,Allen,,53.2419292538768,-6.85265584741901,,,,
8260B1027201,102721,Shee Bridge,,53.2832999175711,-6.87825707267649,,,,
8260B1027601,102761,Dreenane Park,,53.336906507662,-6.93574151210472,,,,
8260B1037601,103761,Kill,,53.2480414557812,-6.59193977992808,,,,
8260B1037901,103791,Naas Odeon Cinema,,53.2311064768181,-6.64054781490404,,,,
8260B1038001,103801,Roseville,,53.2274177496443,-6.64732967492021,,,,
8260B1038401,103841,Primrose Garden,,53.2140458501857,-6.68199387228327,,,,
8260B1038501,103851,Southern Link Park,,53.2118397874093,-6.69715339328672,,,,
8260B1038801,103881,Willowbrook Home,,53.2021432084148,-6.75441796425805,,,,
8260B1039001,103901,St Conleth's Church,,53.1832697731022,-6.79114289154737,,,,
8260B1039401,103941,Moorefield Road,,53.1741788605299,-6.8058635746782,,,,
8260B1039701,103971,Curragh,,53.1471222970896,-6.82996514124558,,,,
8260DB007779,7779,Maynooth Station,,53.3800019371744,-6.58909275398109,,,,
8260DB007794,7794,Shinkeen Road,,53.3350542933057,-6.53245218229742,,,,
8260DB008079,8079,Manor Mills SC,,53.3814966249175,-6.5931319518119,,,,
8260DB008082,8082,Community College,,53.3942662775578,-6.59603379481701,,,,
8310B103381,103381,Enfield,,53.4140677623085,-6.82782529777324,,,,
8310B133631,133631,Ashbourne,,53.511309,-6.397483,,,,
8320DB08078,8078,Katharine Tynan Rd,,53.2908091457826,-6.40385881119494,,,,
8350DB004238,4238,Kilpedder Footbridge,,53.1115468678891,-6.10574122452154,,,,
8350DB004240,4240,Glen Of The Downs,,53.1294923064123,-6.10374139119054,,,,
8350DB004243,4243,Chapel Road,,53.1325613422518,-6.08993094968064,,,,
8350DB004248,4248,Charlesland,,53.1218941054708,-6.07278740883593,,,,
8350DB004251,4251,Lott Lane,,53.114204193012,-6.06585593494876,,,,
8350DB004252,4252,Kilcoole NS,,53.1114908589395,-6.06538019430065,,,,
8350DB004256,4256,Woodstock Park,,53.0941054725499,-6.06751921198422,,,,
8350DB004257,4257,Chippin View Cottage,,53.0899113002707,-6.06663214440313,,,,
8350DB004262,4262,Leabeg Lane,,53.0840247768887,-6.06780667716799,,,,
8350DB004266,4266,Monteith Park,,53.1059763036832,-6.06455231881175,,,,
8350DB004267,4267,Kilcoole,,53.1085704472943,-6.06488393309153,,,,
8350DB004278,4278,Tennis Club,,53.1327710607622,-6.07171769441289,,,,
8350DB004282,4282,Mill Road,,53.139510182348,-6.06105674847875,,,,
8350DB004284,4284,Greystones Village,,53.1454088293711,-6.0644986503024,,,,
8350DB004286,4286,Victoria Road,,53.1500258723062,-6.06651879209845,,,,
8350DB004289,4289,Church Lane,,53.1462163499635,-6.07772339688394,,,,
8350DB004292,4292,Bellevue Road,,53.1449560250565,-6.06927312747872,,,,
8350DB004294,4294,Church Lane,,53.1463915940886,-6.07799962874195,,,,
8350DB004296,4296,Redford Park,,53.1523834446954,-6.08167945651746,,,,
8350DB004297,4297,Redford,,53.1556168761264,-6.08264185061065,,,,
8350DB004304,4304,St Andrew's NS,,53.1893031302232,-6.10265923441766,,,,
8350DB004307,4307,Sea Road Lane,,53.1058468757487,-6.05331095872261,,,,
8350DB004650,4650,Kilpeddar Grove,,53.1109028921166,-6.10481349384664,,,,
8350DB004651,4651,Garden Village,,53.101191179661,-6.10682359018239,,,,
8350DB004652,4652,Coillte Offices,,53.0971249236119,-6.11000375702046,,,,
8350DB004655,4655,Newtown Business Ctr,,53.0843459249484,-6.10509977861385,,,,
8240DB005075,5075,Rathbeale Road,,53.4596633989678,-6.22359026293873,,,,
8240DB005077,5077,Brackenstown Ave,,53.4610751988265,-6.22726633313049,,,,
8240DB006009,6009,Hazelwood,,53.4001099014218,-6.25721799078834,,,,
8240DB006010,6010,Waterside,,53.4528771328355,-6.19836582126226,,,,
8240DB006054,6054,Malahide Road,,53.454236808004,-6.21589621018249,,,,
8240DB006076,6076,Skerries GAA Club,,53.5774603490391,-6.11218501277687,,,,
8240DB006077,6077,Skerries Station,,53.575902408868,-6.11883874903716,,,,
8240DB006126,6126,Marymount Care Ctr,,53.3740650582557,-6.43992876331898,,,,
8240DB006127,6127,Marymount Care Ctr,,53.3741384974654,-6.44004631415469,,,,
8240DB006179,6179,Mill Road,,53.3895530035626,-6.37077328062277,,,,
8240DB006229,6229,Melville,,53.4020463209101,-6.2986179709751,,,,
8240DB006364,6364,Century Business Pk,,53.4025827574774,-6.30157442717958,,,,
8250DB002040,2040,Dun Laoghaire SC,,53.292791187827,-6.13536904926552,,,,
8250DB002045,2045,Tivoli Terrace Sth,,53.2890770531292,-6.14504092261017,,,,
8250DB002051,2051,Lanesville,,53.2864489905194,-6.15989900807051,,,,
8250DB002052,2052,Fosters Avenue,,53.2996711529608,-6.21852037375254,,,,
8250DB002053,2053,Abbey Park,,53.2848462329941,-6.16029785598621,,,,
8250DB003058,3058,Hyde Road,,53.2783993292375,-6.1078923142903,,,,
8250DB003062,3062,Breffni Road,,53.2855435411898,-6.1117613412251,,,,
8250DB003066,3066,St Joseph's Church,,53.2877232595891,-6.12571996545654,,,,
8250DB003069,3069,Corrig Avenue,,53.2907530253407,-6.13263768269577,,,,
8250DB003092,3092,Arnold Grove,,53.2720738489711,-6.12682457731474,,,,
8250DB003106,3106,Arnold Grove,,53.2720024251621,-6.12742746894443,,,,
8250DB003107,3107,Avondale Park,,53.2733749757712,-6.12439851885861,,,,
8250DB003114,3114,Temple Hill,,53.2958050119353,-6.16977349078238,,,,
8250DB003125,3125,Monaloe Crescent,,53.2672716513156,-6.15839888065147,,,,
8250DB003127,3127,Cabinteely Park,,53.2626282391504,-6.15398124956927,,,,
8250DB004128,4128,Woodbrook College,,53.2159235278124,-6.11943740756955,,,,
8250DB004205,4205,Crinken Lane,,53.2245394732734,-6.12488614796331,,,,
8250DB004334,4334,Dargle View,,53.2838186203618,-6.26502908175177,,,,
8250DB004349,4349,Blackthorn Drive,,53.2758454958032,-6.22771389786941,,,,
8250DB004352,4352,Rockville Road,,53.2912359082869,-6.17191895152452,,,,
8250DB004393,4393,Ballyogan Avenue,,53.2593873591334,-6.1935437165655,,,,
8250DB004457,4457,Ravenscourt Park,,53.2750555665773,-6.2091377055827,,,,
8250DB004707,4707,Llewellyn Park,,53.2824167704766,-6.26258128753832,,,,
8250DB004771,4771,Sycamore Drive,,53.263926380281,-6.1682120389022,,,,
8260B102091,102091,Barberstown Road,,53.3168605226119,-6.60644039719256,,,,
8260B1025401,102541,Milltown,,53.2047397520434,-6.86028087505198,,,,
8260B1025801,102581,Baybush,,53.3202420025286,-6.62911552958706,,,,
8260B1026101,102611,Brooklands,,53.2964092447193,-6.67953437599049,,,,
8260B1026301,102631,Clane,,53.2905161762498,-6.68793587350201,,,,
8260B1026701,102671,Kilmeague,,53.2510830161174,-6.8401078558622,,,,
8260B1027301,102731,Lullymore Cross,,53.3102217230508,-6.92359015910499,,,,
8260B1027401,102741,Carbury Mushroom,,53.3188192682252,-6.92720113852172,,,,
8260B1027501,102751,Windmill Cross,,53.334396350016,-6.93141975353167,,,,
8260B1027801,102781,Ashgrove,,53.342026126822,-6.94448920874036,,,,
8260B1030001,103001,Milltown,,53.2047058144662,-6.86049134539324,,,,
8260B1031901,103191,High Road Gap,,53.3463461204056,-6.99944104343089,,,,
8260B1032101,103211,Derrinturn,,53.339715295189,-6.9403116480613,,,,
8260B1038201,103821,St Corban's Place,,53.2218159855149,-6.65665628648024,,,,
8260B1038301,103831,Kildare Co Co,,53.215942766717,-6.672322664207,,,,
8260B1038601,103861,Newhall Retail Park,,53.2104907971262,-6.70532386783024,,,,
8260B1039201,103921,Newbridge,,53.1805392645476,-6.7975331961914,,,,
8260DB007765,7765,Hazelhatch Road,,53.3286896449648,-6.52942779884341,,,,
8260DB007766,7766,Hazelhatch Station,,53.3235857216706,-6.52224772048834,,,,
8260DB007788,7788,Primrose Hill,,53.3361936329131,-6.53520601182546,,,,
8260DB008084,8084,Moyglare Road,,53.3851723314902,-6.59540099933414,,,,
8260GD10268,10268,Carbury,,53.3532844459135,-6.9636484531383,,,,
8260GD10386,10386,Japanese Gardens,,53.143925458037,-6.90101076014908,,,,
8260GD10387,10387,Lidl RDC,,53.1935545637548,-6.76686385736613,,,,
8310B106521,106521,Hickey's Lane,,53.4998099208498,-6.38757647087927,,,,
8310B106531,106531,Hickey's Lane,,53.4997789056417,-6.38727616974165,,,,
8350DB004236,4236,Drummin Gate Lodge,,53.1243222875763,-6.10420810897606,,,,
8350DB004237,4237,Killickabawn,,53.1212708329096,-6.11015474078566,,,,
8350DB004242,4242,Health Centre,,53.1326324629021,-6.09324573971666,,,,
8350DB004246,4246,Glenbrook Park,,53.1242396248687,-6.07331005418816,,,,
8350DB004250,4250,Mountain View,,53.1170968916303,-6.06796712053449,,,,
8350DB004253,4253,Kilcoole,,53.1091448198874,-6.06482826518744,,,,
8350DB004260,4260,Sea Road,,53.0706777792618,-6.06346440713902,,,,
8350DB004263,4263,Chippin View Cottage,,53.0900030616711,-6.06674747815895,,,,
8350DB004268,4268,St Anthony Church,,53.1113944817534,-6.06553390537964,,,,
8350DB004274,4274,Glenbrook Park,,53.1255473579167,-6.07358030277796,,,,
8350DB004279,4279,Burnaby Park,,53.1350997862619,-6.0667706913989,,,,
8240DB003746,3746,Newbridge House,,53.482023842281,-6.17811492190565,,,,
8240DB003749,3749,Broad Meadow Bridge,,53.4716337147239,-6.21082794685204,,,,
8240DB003755,3755,Turvey Avenue,,53.4942829565974,-6.19525422384928,,,,
8240DB003756,3756,Blake's Cross,,53.5024830970289,-6.19189079814161,,,,
8240DB003762,3762,Racecourse Commons,,53.5187041352142,-6.16989042304635,,,,
8240DB003768,3768,Rogerstown Lane,,53.521649,-6.145783,,,,
8240DB007101,7101,Bealing Walk,,53.4182584685729,-6.3871884626096,,,,
8240DB007103,7103,Cruise Park,,53.4198303804518,-6.39311711572298,,,,
8240DB007107,7107,Ballentree Avenue,,53.4170474415278,-6.3860307250241,,,,
8240DB007145,7145,Rathbeale Cottages,,53.4721731244315,-6.25150946191041,,,,
8240DB007169,7169,Leisure Centre,,53.4898314017105,-6.14173062923252,,,,
8240DB007173,7173,Old Market Green,,53.6061962793671,-6.1795437015743,,,,
8240DB007210,7210,Airside,,53.4461428677558,-6.22281462109554,,,,
8250DB002818,2818,Dundrum Road,,53.3079493216426,-6.24641804675265,,,,
8250DB002867,2867,Notre Dame School,,53.2939975275947,-6.24994497074115,,,,
8250DB002868,2868,The Oaks,,53.2938762631882,-6.24841976639738,,,,
8250DB003210,3210,Sallynoggin College,,53.2735043400175,-6.13953752853237,,,,
8250DB003218,3218,Pinewood,,53.2549234444001,-6.13252024013526,,,,
8250DB003221,3221,Loughlinstown Drive,,53.2489840370936,-6.13264407779517,,,,
8250DB003225,3225,Ballybrack SC,,53.2552948672815,-6.13385300991229,,,,
8250DB003226,3226,Kilbogget Park,,53.2585470715876,-6.13777355798251,,,,
8250DB003229,3229,Churchview Road,,53.265352775939,-6.13441945272907,,,,
8250DB003231,3231,Granitefield,,53.2700894891169,-6.1418898734381,,,,
8250DB003235,3235,Pearse Park,,53.2771807073873,-6.14069748612026,,,,
8250DB003236,3236,Honey Park,,53.2779835040087,-6.14030272461495,,,,
8250DB003239,3239,Crosthwaite Park,,53.2843864951785,-6.13303533098,,,,
8250DB003249,3249,Mackinstosh Park,,53.2730249564049,-6.15321836019996,,,,
8250DB003254,3254,Saint Gabriels,,53.2636615721642,-6.14816510931466,,,,
8250DB003278,3278,Rockville Drive,,53.2449049273858,-6.18688634685968,,,,
8250DB003282,3282,Kilternan Village,,53.2357465353745,-6.19344580292084,,,,
8250DB003283,3283,Kilternan Village,,53.2357973490424,-6.19383317906767,,,,
8250DB003284,3284,Golden Ball,,53.2392794199883,-6.19644334783153,,,,
8250DB003306,3306,Sycamore Drive,,53.2633563372602,-6.16855121909571,,,,
8250DB003307,3307,Kerrymount Green,,53.2662010113191,-6.16649565282215,,,,
